,Endereco,LATITUDE,LONGITUDE
0,"rua davi xavier da silva, CIDADE INDUSTRIAL, Curitiba",-25.5061668,-49.32477739999999
1,"rua  carlos klemtz, FAZENDINHA, Curitiba",-25.4763452,-49.32130249999999
2,"rua doutor joão de paula moura brito, UBERABA, Curitiba",-25.4813613,-49.2288666
3,"rua edgard cavalcanti de albuquerque, SÍTIO CERCADO, Curitiba",-25.5403967,-49.255643
4,"rua  carlos munhoz da rocha, TATUQUARA, Curitiba",-25.565375,-49.3375249
5,"rua hussein ibrahim omairy, SÍTIO CERCADO, Curitiba",-25.5536787,-49.259569
6,"rua  nova de colombo, SANTA CÂNDIDA, Curitiba",-25.3687164,-49.2202332
7,"rua  carlos essenfelder, BOQUEIRÃO, Curitiba",-25.4993345,-49.2303143
8,"rua presidente faria, CENTRO, Curitiba",-25.4273866,-49.2685354
9,"rua santa edwiges, BOA VISTA, Curitiba",-25.3564835,-49.2738858
10,"rua  oswaldo maciel, TABOÃO, Curitiba",-25.3783556,-49.2813412
11,"rua tobias de macedo, CENTRO, Curitiba",-25.4272583,-49.3292898
12,"rua tiradentes, CENTRO, Curitiba",-25.4297003,-49.2714254
13,"rua maria homan wisniewski, CIDADE INDUSTRIAL, Curitiba",-25.4547996,-49.3506827
14,"rua 1 de maio, XAXIM, Curitiba",-25.5138195,-49.2783394
15,"rua  olindo caetani, UBERABA, Curitiba",-25.4879663,-49.2015464
16,"rua  fredolin wolf, PILARZINHO, Curitiba",-25.3847796,-49.3090743
17,"rua rockefeller, REBOUÇAS, Curitiba",-25.444576,-49.2624885
18,"rua  água verde, ÁGUA VERDE, Curitiba",-25.4530706,-49.2779229
19,"rua  josé tissi, CIDADE INDUSTRIAL, Curitiba",-25.4359992,-49.35024540000001
20,"rua  marechal floriano peixoto, BOQUEIRÃO, Curitiba",-25.5057767,-49.2353257
21,"rua silva jardim, BATEL, Curitiba",-25.4461985,-49.2848727
22,"rua daniel petersen, FAZENDINHA, Curitiba",-25.485284,-49.33971469999999
23,"rua  brasilia, NOVO MUNDO, Curitiba",-25.494606,-49.2838158
24,"rua setembrino portella neto, CIDADE INDUSTRIAL, Curitiba",-25.4981906,-49.3446177
25,"rua expedicionário estanislau wojcik, ALTO BOQUEIRÃO, Curitiba",-25.5358716,-49.2433378
26,"rua jose rodrigues pinheiro, CIDADE INDUSTRIAL, Curitiba",-25.5146831,-49.3138984
27,"rua pinheirinho, CAPÃO RASO, Curitiba",-25.51383,-49.2955154
28,"rua  theophilo mansur, NOVO MUNDO, Curitiba",-25.4926263,-49.3083997
29,"rua estanislau kucek, CIDADE INDUSTRIAL, Curitiba",-25.5019449,-49.3371703
30,"rua plínio tourinho, JARDIM BOTÂNICO, Curitiba",-25.4405407,-49.25487469999999
31,"rua rosa carvalho chaves, NOVO MUNDO, Curitiba",-25.488419,-49.2781019
32,"rua doutor alfredo vieira barcelos, UBERABA, Curitiba",-25.4707132,-49.230385
33,"rua  república argentina, PORTÃO, Curitiba",-25.4728714,-49.2943385
34,"rua  rui barbosa, CENTRO, Curitiba",-25.436289,-49.2738464
35,"rua canal belém, ORLEANS, Curitiba",-25.4854914,-49.2346413
36,"rua silva jardim, REBOUÇAS, Curitiba",-25.4451616,-49.28210809999999
37,"rua gago coutinho, BOA VISTA, Curitiba",-25.3989273,-49.2417919
38,"rua padre tiago alberione, SANTA FELICIDADE, Curitiba",-25.403536,-49.3157296
39,"rua general adalberto massa, SÍTIO CERCADO, Curitiba",-25.5516959,-49.2461879
40,"rua tobias de macedo, CASCATINHA, Curitiba",-25.4272583,-49.3292898
41,"rua alfredo bufren, CENTRO, Curitiba",-25.4286136,-49.2674689
42,"rua presidente affonso camargo, CAPÃO DA IMBUIA, Curitiba",-25.4416829,-49.2175273
43,"rua lodovico geronazzo, BARREIRINHA, Curitiba",-25.3816011,-49.2525886
44,"rua  léa moreira de souza moura, CIDADE INDUSTRIAL, Curitiba",-25.5111147,-49.32572
45,"rua  paraná, SANTA CÂNDIDA, Curitiba",-25.3798738,-49.2281309
46,"rua  lodovico kaminski, CIDADE INDUSTRIAL, Curitiba",-25.4755627,-49.3590222
47,"rua nossa senhora de nazare, BOA VISTA, Curitiba",-25.3898883,-49.2449844
48,"rua nestor de castro, JARDIM BOTÂNICO, Curitiba",-25.4283558,-49.2727099
49,"rua são francisco, CENTRO, Curitiba",-25.4280348,-49.2704056
50,"rua joão budel, SANTA FELICIDADE, Curitiba",-25.389011,-49.3572141
51,"rua beato pedro donders, CIDADE INDUSTRIAL, Curitiba",-25.5304798,-49.3380445
52,"rua carlos munhoz da rocha, TATUQUARA, Curitiba",-25.565375,-49.3375249
53,"rua jorge wendler, XAXIM, Curitiba",-25.5080412,-49.2588082
54,"rua andre prado, CIDADE INDUSTRIAL, Curitiba",-25.5325556,-49.3366785
55,"rua ricardo emílio michel, CIDADE INDUSTRIAL, Curitiba",-25.4922776,-49.3409157
56,"rua henrique josé sikorski, SEMINÁRIO, Curitiba",-25.4485115,-49.3131299
57,"rua angelina ansai, FAZENDINHA, Curitiba",-25.4797031,-49.3216957
58,"rua nova aurora, SÍTIO CERCADO, Curitiba",-25.5443524,-49.2640623
59,"rua amadeu piotto, CAMPO COMPRIDO, Curitiba",-25.4344515,-49.3569265
60,"rua município de campo novo, CIDADE INDUSTRIAL, Curitiba",-25.4722755,-49.3492142
61,"rua joão nicoletti daros, XAXIM, Curitiba",-25.5058855,-49.2774492
62,"rua adir josé frason, CAMPO COMPRIDO, Curitiba",-25.4353363,-49.3630672
63,"rua raul pompeia, CIDADE INDUSTRIAL, Curitiba",-25.4806276,-49.3429399
64,"rua joão casagrande, CIDADE INDUSTRIAL, Curitiba",-25.4615343,-49.3486312
65,"rua desembargador cid campelo, CIDADE INDUSTRIAL, Curitiba",-25.49842,-49.337959
66,"rua pedro sebastião medeiros, ALTO BOQUEIRÃO, Curitiba",-25.52734,-49.24335319999999
67,"rua luis casa grande, CIDADE INDUSTRIAL, Curitiba",-25.463106,-49.3492714
68,"rua haydée pereira do nascimento, NOVO MUNDO, Curitiba",-25.4851566,-49.3071379
69,"rua iris antonio campos, CAMPO COMPRIDO, Curitiba",-25.46567,-49.3223958
70,"rua república argentina, PORTÃO, Curitiba",-25.4728714,-49.2943385
71,"rua marquês de barbacena, CIDADE INDUSTRIAL, Curitiba",-25.4810339,-49.3480224
72,"rua professor theodócio jorge atherino, BOQUEIRÃO, Curitiba",-25.4775147,-49.3413756
73,"rua doutor bley zornig, BOQUEIRÃO, Curitiba",-25.5131678,-49.22919539999999
74,"rua laranjeiras do sul, ALTO BOQUEIRÃO, Curitiba",-25.52721,-49.234025
75,"rua alvares de azevedo, CIDADE INDUSTRIAL, Curitiba",-25.4817657,-49.348043
76,"rua josé batista dos santos, CIDADE INDUSTRIAL, Curitiba",-25.4799406,-49.3439543
77,"rua das torres, TATUQUARA, Curitiba",-25.5647384,-49.3282697
78,"rua laranjeiras do sul, BOQUEIRÃO, Curitiba",-25.52721,-49.234025
79,"rua manoel ribas, CASCATINHA, Curitiba",-25.4137614,-49.3117505
80,"rua comendador araújo, CENTRO, Curitiba",-25.4370356,-49.2803024
81,"rua antonio vieira borges, REBOUÇAS, Curitiba",-25.4429538,-49.25237260000001
82,"rua reinaldo strobel, CIDADE INDUSTRIAL, Curitiba",-25.48512,-49.3545069
83,"rua pastor manoel virgínio de souza, CAPÃO DA IMBUIA, Curitiba",-25.4363383,-49.2106874
84,"rua guabirotuba, PRADO VELHO, Curitiba",-25.4479094,-49.2527137
85,"rua rogerio pereira de camargo, CAMPO COMPRIDO, Curitiba",-25.4441213,-49.3552498
86,"rua engenheiro alberto monteiro de carvalho, CAPÃO DA IMBUIA, Curitiba",-25.4359762,-49.2114722
87,"rua brigadeiro arthur carlos peralta, BOA VISTA, Curitiba",-25.3859715,-49.2489825
88,"rua marechal floriano peixoto, REBOUÇAS, Curitiba",-25.4454801,-49.2648526
89,"rua pinheiro machado, FAZENDINHA, Curitiba",-25.4864749,-49.3311915
90,"rua elias casseb, TATUQUARA, Curitiba",-25.5616529,-49.33264459999999
91,"rua elias casseb, PINHEIRINHO, Curitiba",-25.5616529,-49.33264459999999
92,"rua hiato shimori, BOQUEIRÃO, Curitiba",-25.5030083,-49.2367172
93,"rua arthur martins franco, PORTÃO, Curitiba",-25.4962233,-49.33521289999999
94,"rua joão batista dos santos, CIDADE INDUSTRIAL, Curitiba",-25.4936221,-49.3504437
95,"rua garuva, CIDADE INDUSTRIAL, Curitiba",-25.4770185,-49.3411638
96,"rua coronel pedro scherer sobrinho, CAPÃO DA IMBUIA, Curitiba",-25.4359731,-49.2399987
97,"rua assis brasil, BARREIRINHA, Curitiba",-25.3692062,-49.2645258
98,"rua são bento, JARDIM BOTÂNICO, Curitiba",-25.479431,-49.25371860000001
99,"rua mário bueno sobrinho, UBERABA, Curitiba",-25.4719985,-49.2254695
100,"rua vicente machado, CENTRO, Curitiba",-25.4350783,-49.28153
101,"rua aristides tissot, CIDADE INDUSTRIAL, Curitiba",-25.4762364,-49.33486809999999
102,"rua herculano de araujo filho, CIDADE INDUSTRIAL, Curitiba",-25.5280708,-49.3368429
103,"rua silvio da maia moreira, UBERABA, Curitiba",-25.4924379,-49.2257668
104,"rua alton tchekow, PINHEIRINHO, Curitiba",38.8906038,-90.1842764
105,"rua curitiba ponta grossa br-277, ORLEANS, Curitiba",-25.103103,-50.1537446
106,"rua quadra 10, TATUQUARA, Curitiba",-25.5647384,-49.3282697
107,"rua leocádio moskaleviski lacerda, SÍTIO CERCADO, Curitiba",-25.5504565,-49.2455028
108,"rua tenente coronel benjamin lage, UBERABA, Curitiba",-25.4985509,-49.2185304
109,"rua doutor bley zornig, BUTIATUVINHA, Curitiba",-25.5129372,-49.2286043
110,"rua cabral, SANTA CÂNDIDA, Curitiba",-25.4068314,-49.2514714
111,"rua nicolau salomão, BOA VISTA, Curitiba",-25.3845345,-49.2247488
112,"rua augusto basso, PILARZINHO, Curitiba",-25.3919796,-49.2849784
113,"rua deputado heitor alencar furtado, CAMPINA DO SIQUEIRA, Curitiba",-25.4378592,-49.3134264
114,"rua juarez távora, PINHEIRINHO, Curitiba",-25.5573018,-49.3327921
115,"rua joão mequetti, SANTA CÂNDIDA, Curitiba",-25.376755,-49.2378355
116,"rua ciro de castro, CIDADE INDUSTRIAL, Curitiba",-25.4711942,-49.34089609999999
117,"rua professor romão wachowicz, CIDADE INDUSTRIAL, Curitiba",-25.5097795,-49.3365689
118,"rua antonio reinaldo zanon, CIDADE INDUSTRIAL, Curitiba",-25.4780424,-49.3362823
119,"rua carlota straube de araújo, BOA VISTA, Curitiba",-25.3876684,-49.2505453
120,"rua  ladislau mikosz, CAJURU, Curitiba",-25.4683792,-49.19831929999999
121,"rua jorge adir nepomoceno, CAMPO COMPRIDO, Curitiba",-25.4377014,-49.3631514
122,"rua da ordem, PINHEIRINHO, Curitiba",-25.5378833,-49.2994965
123,"rua  winston churchill, CAPÃO RASO, Curitiba",-25.5067755,-49.2957937
124,"rua  cidade de laguna, CIDADE INDUSTRIAL, Curitiba",-25.4750745,-49.340517
125,"rua lauro da silva, CIDADE INDUSTRIAL, Curitiba",-25.5026893,-49.32389
126,"rua curitiba ponta grossa br-277, SANTA FELICIDADE, Curitiba",-25.4308832,-49.3326911
127,"rua cerro azul, CAMPO COMPRIDO, Curitiba",-25.4576947,-49.376623
128,"rua ricardo gasparian machado, SÍTIO CERCADO, Curitiba",-25.532319,-49.285807
129,"rua manoel gustavo schier, PORTÃO, Curitiba",-25.4810356,-49.3112192
130,"rua romano bertagnoli, NOVO MUNDO, Curitiba",-25.4215033,-49.3005819
131,"rua orestes codega, PINHEIRINHO, Curitiba",-25.5204652,-49.3051156
132,"rua sigismundo gradowski, CIDADE INDUSTRIAL, Curitiba",-25.4985838,-49.34016099999999
133,"rua bispo são félix, TATUQUARA, Curitiba",-25.5625999,-49.33058219999999
134,"rua  guilherme walter lowry, UBERABA, Curitiba",-25.4881863,-49.20103760000001
135,"rua guy de maupassant, ÁGUA VERDE, Curitiba",-25.3882712,-49.2861376
136,"rua prefeito joão moreira garcez, CENTRO, Curitiba",-25.428824,-49.270358
137,"rua nestor de castro, SÃO FRANCISCO, Curitiba",-25.4281705,-49.2726034
138,"rua antonio escorsin, SANTA FELICIDADE, Curitiba",-25.4175282,-49.3459213
139,"rua doutor carlos de carvalho, BATEL, Curitiba",-25.4380219,-49.2926447
140,"rua da glória, CENTRO CÍVICO, Curitiba",-25.4208533,-49.2676403
141,"rua inocêncio milani, SÃO BRAZ, Curitiba",-25.4138809,-49.3485918
142,"rua  via veneto, SANTA FELICIDADE, Curitiba",-25.4014227,-49.32990470000001
143,"rua senador accioly filho, CIDADE INDUSTRIAL, Curitiba",-25.4974267,-49.3253023
144,"rua rari graal, UMBARÁ, Curitiba",-25.560004,-49.283783
145,"rua padre paulo warkocz, SANTA FELICIDADE, Curitiba",-25.4381559,-49.35511899999999
146,"rua josé scuissiato, CAMPINA DO SIQUEIRA, Curitiba",-25.4454235,-49.3065182
147,"rua teomilia de freitas machado, FAZENDINHA, Curitiba",-25.4780177,-49.3335646
148,"rua delegado bruno de almeida, PINHEIRINHO, Curitiba",-25.5846558,-49.318286
149,"rua delegado bruno de almeida, CAXIMBA, Curitiba",-25.6085605,-49.3339732
150,"rua  jornalista emílio zola florenzano, TATUQUARA, Curitiba",-25.5759821,-49.3362475
151,"rua desembargador joaquim penido monteiro, JARDIM SOCIAL, Curitiba",-25.4142952,-49.2387415
152,"rua colômbia, BACACHERI, Curitiba",-25.4079013,-49.2391424
153,"rua  miguel de lazzari, PILARZINHO, Curitiba",-25.392724,-49.2906062
154,"rua reinaldo issberner, CAJURU, Curitiba",-25.4492541,-49.2250322
155,"rua  ewerton leinig saporski, CAMPO DE SANTANA, Curitiba",-25.5909876,-49.3428253
156,"rua  coronel herculano de araujo, NOVO MUNDO, Curitiba",-25.4873004,-49.303811
157,"rua  antonio moreira lopes, CAJURU, Curitiba",-25.4735303,-49.191649
158,"rua cândido hartmann, SANTO INÁCIO, Curitiba",-25.4228114,-49.31544419999999
159,"rua lupionópolis, SÍTIO CERCADO, Curitiba",-25.5452172,-49.2678545
160,"rua  antonio claudino, PINHEIRINHO, Curitiba",-25.5288546,-49.2962778
161,"rua  cândido hartmann, SANTO INÁCIO, Curitiba",-25.4228114,-49.31544419999999
162,"rua marechal floriano peixoto, BOQUEIRÃO, Curitiba",-25.5057767,-49.2353257
163,"rua joão rodrigues pinheiro, PINHEIRINHO, Curitiba",-25.5120256,-49.3027064
164,"rua  josé alcides de lima, NOVO MUNDO, Curitiba",-25.4926192,-49.3065644
165,"rua guy de maupassant, PILARZINHO, Curitiba",-25.3882712,-49.2861376
166,"rua luiz xavier da silva, CIDADE INDUSTRIAL, Curitiba",-25.4776639,-49.171373
167,"rua nestor victor, ÁGUA VERDE, Curitiba",-25.4556878,-49.2753666
168,"rua emilio bertolini, CAJURU, Curitiba",-25.4460421,-49.2096485
169,"rua francisco castellano, JARDIM DAS AMÉRICAS, Curitiba",-25.4695279,-49.22536119999999
170,"rua eurides cunha, ÁGUA VERDE, Curitiba",-25.4548777,-49.2906194
171,"rua generoso marques, CENTRO, Curitiba",-25.4295062,-49.2702159
172,"rua capitão roberto lopes quintas, ALTO BOQUEIRÃO, Curitiba",-25.5372024,-49.2371681
173,"rua milton miramir visinoni, SÍTIO CERCADO, Curitiba",-25.5434341,-49.2502079
174,"rua carlos klemtz, FAZENDINHA, Curitiba",-25.4763452,-49.32130249999999
175,"rua prefeito maurício fruet, CAPÃO DA IMBUIA, Curitiba",-25.4397073,-49.2237836
176,"rua canal belém, CENTRO, Curitiba",-25.4854914,-49.2346413
177,"rua do rosário, CENTRO, Curitiba",-25.4284309,-49.2732123
178,"rua luiz augusto de toledo leite, UBERABA, Curitiba",-25.5579583,-49.2798679
179,"rua coronel wallace scott murray, SANTA CÂNDIDA, Curitiba",-25.3775846,-49.2323814
180,"rua sergipe, PORTÃO, Curitiba",-25.4716086,-49.2739108
181,"rua presidente affonso camargo, JARDIM BOTÂNICO, Curitiba",-25.4353638,-49.2573899
182,"rua  euclides bandeira, CENTRO CÍVICO, Curitiba",-25.4133879,-49.2703932
183,"rua zorayde mandelli, CAPÃO DA IMBUIA, Curitiba",-25.4419996,-49.2013028
184,"rua guarandi, SÃO BRAZ, Curitiba",-25.4187121,-49.3385672
185,"rua nossa senhora do equilíbrio, CIDADE INDUSTRIAL, Curitiba",-25.498634,-49.3532375
186,"rua pedro zagonel, NOVO MUNDO, Curitiba",-25.4890055,-49.3031167
187,"rua josé irineu budant, SÍTIO CERCADO, Curitiba",-25.555965,-49.2647528
188,"rua conde dos arcos, LINDÓIA, Curitiba",-25.4796343,-49.2775383
189,"rua alberto kosop, PINHEIRINHO, Curitiba",-25.5195129,-49.29835749999999
190,"rua nazilde guimarães paixão, CIDADE INDUSTRIAL, Curitiba",-25.4987296,-49.3434477
191,"rua do trabalho, SÍTIO CERCADO, Curitiba",-25.5378223,-49.2984537
192,"rua gustavo prestes aldenucci, SÍTIO CERCADO, Curitiba",-25.5324637,-49.25714809999999
193,"rua lygia erichsen carneiro, UBERABA, Curitiba",-25.4853816,-49.2016259
194,"rua cabral, CENTRO, Curitiba",-25.4282892,-49.2786445
195,"rua joão amadeu pedro bom, TATUQUARA, Curitiba",-25.5511225,-49.29871110000001
196,"rua ayrton pizzatto gusi, XAXIM, Curitiba",-25.5254615,-49.2594763
197,"rua padre francisco van de water, SÍTIO CERCADO, Curitiba",-25.5459711,-49.2503801
198,"rua jurandir mendes de lima (radialista jurandir carioca), GANCHINHO, Curitiba",-25.5554978,-49.2481186
199,"rua assis figueiredo, PAROLIN, Curitiba",-25.4660817,-49.2700167
200,"rua desembargador josé carlos ribeiro ribas, ABRANCHES, Curitiba",-25.3795824,-49.2791027
201,"rua doutor benedicto siqueira branco, ALTO BOQUEIRÃO, Curitiba",-25.53427,-49.240236
202,"rua gilberto pinto mileo, CIDADE INDUSTRIAL, Curitiba",-25.5011686,-49.3144804
203,"rua bento gonçalves, CAJURU, Curitiba",-25.4509231,-49.2217216
204,"rua marco campos, CIDADE INDUSTRIAL, Curitiba",-25.5318857,-49.3392432
205,"rua  visconde do serro frio, NOVO MUNDO, Curitiba",-25.4862954,-49.3010481
206,"rua general potiguara, FAZENDINHA, Curitiba",-25.4864615,-49.3197134
207,"rua  fredolin wolf, SÃO JOÃO, Curitiba",-25.3847796,-49.3090743
208,"rua dos pioneiros, SÍTIO CERCADO, Curitiba",-25.5345335,-49.26999139999999
209,"rua paula gomes, CENTRO, Curitiba",-25.4244893,-49.2749641
210,"rua ouro verde, CAPÃO RASO, Curitiba",-25.5077029,-49.3009607
211,"rua maria de lourdes mickosz, ATUBA, Curitiba",-25.3749964,-49.2785387
212,"rua maria de lourdes mickosz, ABRANCHES, Curitiba",-25.3749964,-49.2785387
213,"rua nestor de castro, CENTRO, Curitiba",-25.4283558,-49.2727099
214,"rua  mani zir bourges, PINHEIRINHO, Curitiba",-25.5244572,-49.2672311
215,"rua victor ferreira do amaral, TARUMÃ, Curitiba",-25.4292786,-49.22198179999999
216,"rua  pastor waldomiro bileski, SÍTIO CERCADO, Curitiba",-25.5429877,-49.2613677
217,"rua visconde de guarapuava, ALTO DA RUA XV, Curitiba",-25.4298873,-49.2511027
218,"rua  república argentina, NOVO MUNDO, Curitiba",-25.4713135,-49.29432629999999
219,"rua guilherme janz, MOSSUNGUÊ, Curitiba",-25.4418668,-49.3293788
220,"rua helena c s correa, PINHEIRINHO, Curitiba",-25.5187346,-49.282731
221,"rua jaime reis, SÃO FRANCISCO, Curitiba",-25.4263896,-49.2768453
222,"rua macapá, TINGUI, Curitiba",-25.3815969,-49.2251169
223,"rua santa anastásia, CAJURU, Curitiba",-25.4442806,-49.2140729
224,"rua josé julio tortato, CAMPO DE SANTANA, Curitiba",-25.602566,-49.315489
225,"rua  madre emilia riquelme, SÍTIO CERCADO, Curitiba",-25.5441622,-49.2771122
226,"rua natal, CAJURU, Curitiba",-25.4543716,-49.209005
227,"rua mariano torres, CENTRO, Curitiba",-25.431386,-49.2621927
228,"rua  prefeito lothário meissner, JARDIM BOTÂNICO, Curitiba",-25.444067,-49.2388825
229,"rua  joão mequetti, SANTA CÂNDIDA, Curitiba",-25.376755,-49.2378355
230,"rua adir josé frason, CIDADE INDUSTRIAL, Curitiba",-25.4353363,-49.3630672
231,"rua  jovenilson américo de oliveira, TATUQUARA, Curitiba",-25.560451,-49.3305674
232,"rua inacio lustosa, CENTRO, Curitiba",-25.4233618,-49.2757957
233,"rua theodoro alves, CAJURU, Curitiba",-25.4942057,-49.2047968
234,"rua euclides bandeira, CENTRO CÍVICO, Curitiba",-25.4133879,-49.2703932
235,"rua prudente de moraes, LINDÓIA, Curitiba",-25.4279544,-49.283546
236,"rua  república argentina, CAPÃO RASO, Curitiba",-25.494944,-49.2942488
237,"rua afonso lipinski, BIGORRILHO, Curitiba",-25.4331484,-49.3439262
238,"rua  jornalista aderbal g stresser, CAJURU, Curitiba",-25.4728564,-49.1987211
239,"rua visconde de abaeté, BAIRRO ALTO, Curitiba",-25.4267006,-49.20220440000001
240,"rua antonio rebelatto, XAXIM, Curitiba",-25.4943024,-49.2625409
241,"rua joão parize, SÃO BRAZ, Curitiba",-25.4098714,-49.339125
242,"rua do xisto br-476, PINHEIRINHO, Curitiba",-25.7631786,-49.73725
243,"rua francisco josé lobo, SÍTIO CERCADO, Curitiba",-25.5310148,-49.2744846
244,"rua said joão sallum, BAIRRO ALTO, Curitiba",-25.4160415,-49.21178140000001
245,"rua anita garibaldi, CENTRO, Curitiba",-25.3805505,-49.2614333
246,"rua república argentina, ÁGUA VERDE, Curitiba",-25.4598066,-49.2893373
247,"rua tophile kogempa, CAJURU, Curitiba",-25.4629159,-49.195671
248,"rua  padre anchieta, CAMPINA DO SIQUEIRA, Curitiba",-25.4346234,-49.3030647
249,"rua elizeu valentin de lima, CAMPO DE SANTANA, Curitiba",-25.5848434,-49.3211631
250,"rua augusto dias paredes, BOQUEIRÃO, Curitiba",-25.5023823,-49.2228303
251,"rua paraná, BOA VISTA, Curitiba",-25.3886823,-49.2334685
252,"rua josé galeski, CAPÃO RASO, Curitiba",-25.5128341,-49.30268599999999
253,"rua izaac ferreira da cruz, SÍTIO CERCADO, Curitiba",-25.5359612,-49.272154
254,"rua rio araguari, BAIRRO ALTO, Curitiba",-25.4016328,-49.20234
255,"rua deputado benedito lúcio machado, XAXIM, Curitiba",-25.5063538,-49.2758378
256,"rua jacob bertinato, ALTO DA RUA XV, Curitiba",-25.4310058,-49.2371096
257,"rua clávio molinari, CAPÃO DA IMBUIA, Curitiba",-25.4396,-49.2114482
258,"rua luiz leal da rocha, CAMPO DE SANTANA, Curitiba",-25.5813704,-49.324136
259,"rua  velha do barigui, CIDADE INDUSTRIAL, Curitiba",-25.4942291,-49.3450126
260,"rua  santo inácio, CIDADE INDUSTRIAL, Curitiba",-25.500517,-49.321574
261,"rua indefinido, BOQUEIRÃO, Curitiba",-25.5030083,-49.2367172
262,"rua capiberibe, BOQUEIRÃO, Curitiba",-25.4636878,-49.3036363
263,"rua zacarias gomes de souza, UBERABA, Curitiba",-25.4881825,-49.207207
264,"rua praça colégio benedito, BOA VISTA, Curitiba",-25.3886823,-49.2334685
265,"rua presidente wenceslau braz, PORTÃO, Curitiba",-25.478438,-49.2880143
266,"rua pelegrino azzolin (o pedreiro artista), GANCHINHO, Curitiba",-25.5572204,-49.2484204
267,"rua andre de barros, CENTRO, Curitiba",-25.4347863,-49.26866709999999
268,"rua nicolau salomão, TINGUI, Curitiba",-25.3845345,-49.2247488
269,"rua quadra 15, TATUQUARA, Curitiba",-25.5647384,-49.3282697
270,"rua cabral, CENTRO CÍVICO, Curitiba",-25.4174893,-49.2687071
271,"rua  waldemar kost, HAUER, Curitiba",-25.4852738,-49.2526187
272,"rua manoel valdomiro de macedo, CIDADE INDUSTRIAL, Curitiba",-25.5142532,-49.3182753
273,"rua professor ulisses vieira, VILA IZABEL, Curitiba",-25.4607224,-49.2977864
274,"rua francisco de paula sobrinho, CAJURU, Curitiba",-25.4709955,-49.1999997
275,"rua waldemar pereira da silva, UBERABA, Curitiba",-25.5012563,-49.21578179999999
276,"rua xv de novembro, CENTRO, Curitiba",-25.4285759,-49.2650078
277,"rua saturnino miranda, SANTA FELICIDADE, Curitiba",-25.3966966,-49.33495509999999
278,"rua francisco borges machado, CAPÃO DA IMBUIA, Curitiba",-25.4323422,-49.2140444
279,"rua deputado mário de barros, CENTRO CÍVICO, Curitiba",-25.4119308,-49.2693334
280,"rua clávio molinari, ABRANCHES, Curitiba",-25.4396,-49.2114482
281,"rua clávio molinari, CAJURU, Curitiba",-25.4396,-49.2114482
282,"rua  dos funcionários, CABRAL, Curitiba",-25.406527,-49.2517266
283,"rua antenor josé tedeschi, CAJURU, Curitiba",-25.4563518,-49.2008313
284,"rua robert redzimski, CAMPO COMPRIDO, Curitiba",-25.4574862,-49.348574
285,"rua marechal floriano peixoto, HAUER, Curitiba",-25.476999,-49.2494121
286,"rua  monsenhor ivo zanlorenzi, CAMPO COMPRIDO, Curitiba",-25.4390853,-49.33161560000001
287,"rua adolfo joao hilario da veiga, CIDADE INDUSTRIAL, Curitiba",-25.4508624,-49.3540985
288,"rua catulo da paixão cearense, CAPÃO DA IMBUIA, Curitiba",-25.4649395,-49.2061748
289,"rua  1 de maio, XAXIM, Curitiba",-25.5138195,-49.2783394
290,"rua professor joão falarz, CAMPO COMPRIDO, Curitiba",-25.4394581,-49.3464305
291,"rua  tijucas do sul, SÍTIO CERCADO, Curitiba",-25.5444929,-49.2657766
292,"rua 6 quadra 15, SÍTIO CERCADO, Curitiba",-25.5443488,-49.26656209999999
293,"rua antonio moreira lopes, CAJURU, Curitiba",-25.4735303,-49.191649
294,"rua  major nestor luiz de oliveira júnior, SANTO INÁCIO, Curitiba",-25.4266388,-49.3442423
295,"rua maria simao campos, UBERABA, Curitiba",-25.4854885,-49.2120294
296,"rua jornalista octávio sécundino, BOM RETIRO, Curitiba",-25.4050683,-49.2806126
297,"rua  são paulo, GUAÍRA, Curitiba",-25.4671717,-49.2774543
298,"rua saldanha marinho, CENTRO, Curitiba",-25.4313265,-49.2791618
299,"rua elohar scheremetta, CACHOEIRA, Curitiba",-25.3549943,-49.2578285
300,"rua marcos mocellin, SANTA FELICIDADE, Curitiba",-25.4013189,-49.3268061
301,"rua eduardo sprada, AUGUSTA, Curitiba",-25.4536247,-49.3689879
302,"rua  conselheiro laurindo, CENTRO, Curitiba",-25.4345074,-49.2630588
303,"rua  francisco josé lobo, SÍTIO CERCADO, Curitiba",-25.5310148,-49.2744846
304,"rua dos pioneiros, ALTO BOQUEIRÃO, Curitiba",-25.5345335,-49.26999139999999
305,"rua baldur magnus grubba, NOVO MUNDO, Curitiba",-25.483612,-49.3079584
306,"rua  deputado pinheiro junior, UMBARÁ, Curitiba",-25.5599711,-49.2837695
307,"rua paulo bettes, NOVO MUNDO, Curitiba",-25.4794777,-49.286002
308,"rua celeste tortato gabardo, SÍTIO CERCADO, Curitiba",-25.5440645,-49.28107019999999
309,"rua  deputado heitor alencar furtado, CAMPO COMPRIDO, Curitiba",-25.4381247,-49.33185049999999
310,"rua doutor salvador de maio, JARDIM BOTÂNICO, Curitiba",-25.4514866,-49.2413481
311,"rua charles dickens, SANTA CÂNDIDA, Curitiba",-25.3690117,-49.2691047
312,"rua josé damarate, SANTA FELICIDADE, Curitiba",-25.3823688,-49.3353443
313,"rua nossa senhora do sagrado coração, CAPÃO RASO, Curitiba",-25.5337636,-49.2958177
314,"rua waldemar monastier, BOQUEIRÃO, Curitiba",-25.5397327,-49.2335507
315,"rua nossa senhora do sagrado coração, PINHEIRINHO, Curitiba",-25.5337636,-49.2958177
316,"rua charles dickens, PINHEIRINHO, Curitiba",-25.3690117,-49.2691047
317,"rua senador souza naves, CRISTO REI, Curitiba",-25.4310415,-49.2482643
318,"rua charles dickens, ABRANCHES, Curitiba",-25.3694452,-49.2687491
319,"rua mauro gonçalves- zacarias, TATUQUARA, Curitiba",-25.5616973,-49.3392973
320,"rua  joão amadeu pedro bom, TATUQUARA, Curitiba",-25.5511225,-49.29871110000001
321,"rua mercúrio, SÍTIO CERCADO, Curitiba",-25.5312926,-49.2647464
322,"rua general osório, CENTRO, Curitiba",-25.4326878,-49.2762228
323,"rua doutor carlos de carvalho, CENTRO, Curitiba",-25.4331883,-49.2804009
324,"rua reverendo paulo hecke, AHÚ, Curitiba",-25.3971272,-49.2595751
326,"rua florindo rinaldin, XAXIM, Curitiba",-25.5099301,-49.2727241
327,"rua  doutor levy buquera, SÍTIO CERCADO, Curitiba",-25.5307277,-49.2677738
328,"rua uberlândia, ABRANCHES, Curitiba",-25.3609742,-49.2736796
329,"rua abóbora, UBERABA, Curitiba",-25.4809097,-49.20498569999999
330,"rua darcy meirelles da luz, CIDADE INDUSTRIAL, Curitiba",-25.4390034,-49.359761
331,"rua brasília, PORTÃO, Curitiba",-25.4831826,-49.2924701
332,"rua  denilson felipe de lima, CIDADE INDUSTRIAL, Curitiba",-25.5096348,-49.3269682
333,"rua dos pioneiros, ALTO DA GLÓRIA, Curitiba",-25.5345335,-49.26999139999999
334,"rua canadá, CABRAL, Curitiba",-25.3929371,-49.2386451
335,"rua adilio ramos, BAIRRO ALTO, Curitiba",-25.4108029,-49.2058046
336,"rua nossa senhora de nazaré, BOA VISTA, Curitiba",-25.3898883,-49.2449844
337,"rua santa bertilla boscardin, SANTA FELICIDADE, Curitiba",-25.4013224,-49.3293025
338,"rua coronel francisco h dos santos, BACACHERI, Curitiba",-25.4544299,-49.2303371
339,"rua ourizona, SÍTIO CERCADO, Curitiba",-25.5445824,-49.26188
340,"rua deputado mário de barros, CENTRO, Curitiba",-25.412708,-49.26607869999999
341,"rua coronel francisco h dos santos, GUABIROTUBA, Curitiba",-25.4673309,-49.2349871
342,"rua luiz frança, CAJURU, Curitiba",-25.4536773,-49.2181808
343,"rua  cezinando dias paredes, BOQUEIRÃO, Curitiba",-25.5060759,-49.2224587
344,"rua joão gbur, SANTA CÂNDIDA, Curitiba",-25.3804292,-49.2299058
345,"rua paulina maria da luz, SÍTIO CERCADO, Curitiba",-25.5403044,-49.26519099999999
346,"rua general mario tourinho, SEMINÁRIO, Curitiba",-25.4467823,-49.304751
347,"rua josé manoel voluz, PINHEIRINHO, Curitiba",-25.5302446,-49.2817079
348,"rua luiz xavier, CENTRO, Curitiba",-25.4321723,-49.27418890000001
349,"rua augusto dos anjos, ABRANCHES, Curitiba",-25.3664913,-49.2681827
350,"rua vereador toaldo túlio, SANTA FELICIDADE, Curitiba",-25.4188405,-49.3484105
351,"rua wilson dacheux pereira, ALTO BOQUEIRÃO, Curitiba",-25.5275115,-49.24037449999999
352,"rua  margarida angela zardo miranda, SANTA FELICIDADE, Curitiba",-25.4068895,-49.3355061
353,"rua  marechal floriano peixoto, HAUER, Curitiba",-25.476999,-49.2494121
354,"rua maria homan wisniewski, CAMPO COMPRIDO, Curitiba",-25.4552229,-49.3452597
355,"rua  guy de maupassant, PILARZINHO, Curitiba",-25.3882712,-49.2861376
356,"rua izaac ferreira da cruz, ALTO BOQUEIRÃO, Curitiba",-25.5298903,-49.2547964
357,"rua maria aparecida beruski, BOA VISTA, Curitiba",-25.3726454,-49.2539295
358,"rua eleonora faria costa da silva, CAPÃO RASO, Curitiba",-25.502593,-49.2850923
359,"rua lourenço pinto, CENTRO, Curitiba",-25.4356483,-49.268409
360,"rua  presidente affonso camargo, CAPÃO DA IMBUIA, Curitiba",-25.4416829,-49.2175273
361,"rua  mobral, SANTA CÂNDIDA, Curitiba",-25.3630723,-49.2306529
362,"rua bartolomeu lourenço de gusmão, BOQUEIRÃO, Curitiba",-25.5002192,-49.2326838
363,"rua adolfo bonaroski, CIDADE INDUSTRIAL, Curitiba",-25.5008068,-49.3245916
364,"rua lázaro borssatto, ALTO BOQUEIRÃO, Curitiba",-25.5284405,-49.241477
365,"rua wilson gomes ramos, CIDADE INDUSTRIAL, Curitiba",-25.3606478,-49.276718
366,"rua rua luiz lara fernandes da penha, CAJURU, Curitiba",-25.4721721,-49.190547
367,"rua doutor simão kossobudski, BOQUEIRÃO, Curitiba",-25.5011396,-49.2266099
368,"rua mateus leme, CENTRO CÍVICO, Curitiba",-25.4158328,-49.2714386
369,"rua desembargador motta, BIGORRILHO, Curitiba",-25.4289585,-49.2861293
370,"rua rui barbosa, CENTRO, Curitiba",-25.436289,-49.2738464
371,"rua etiopia, CAJURU, Curitiba",-25.4660259,-49.201103
372,"rua desembargador motta, CENTRO, Curitiba",-25.4355895,-49.2827181
373,"rua desembargador antonio costa, CAJURU, Curitiba",-25.468018,-49.20178079999999
374,"rua araguaia, CAPÃO DA IMBUIA, Curitiba",-25.4377739,-49.2074794
375,"rua presidente wenceslau braz, LINDÓIA, Curitiba",-25.4748062,-49.2729879
376,"rua curitiba ponta grossa br-277, CAMPO COMPRIDO, Curitiba",-25.4308832,-49.3326911
377,"rua  pedro siemens, XAXIM, Curitiba",-25.5122834,-49.2664905
378,"rua  anair balla, SANTA FELICIDADE, Curitiba",-25.394189,-49.3266401
379,"rua luiz gusso, BOA VISTA, Curitiba",-25.3773057,-49.2514203
380,"rua da república, PORTÃO, Curitiba",-25.4763182,-49.2858539
381,"rua beato gaspar stanggassinger, CIDADE INDUSTRIAL, Curitiba",-25.5316785,-49.3386735
382,"rua pedro jacob klock, SANTA CÂNDIDA, Curitiba",-25.3656766,-49.2221374
383,"rua r. henrique mehl, UBERABA, Curitiba",-25.4829153,-49.218303
384,"rua estados unidos, BACACHERI, Curitiba",-25.405489,-49.24204539999999
385,"rua uruguai, BAIRRO ALTO, Curitiba",-25.4112352,-49.206914
386,"rua  adhmar vieira de araújo, UBERABA, Curitiba",-25.4888889,-49.2042841
387,"rua  lodovico kaminski, FAZENDINHA, Curitiba",-25.4755627,-49.3590222
388,"rua rio mucuri, BAIRRO ALTO, Curitiba",-25.3980469,-49.2053289
389,"rua anne frank, HAUER, Curitiba",-25.4800096,-49.2467212
390,"rua joão socha, SÍTIO CERCADO, Curitiba",-25.5336697,-49.2773522
391,"rua das seringueiras, BAIRRO ALTO, Curitiba",-25.4039885,-49.21360749999999
392,"rua são francisco, SÃO FRANCISCO, Curitiba",-25.4279367,-49.2708063
393,"rua antonio gomide, FAZENDINHA, Curitiba",-25.4856567,-49.32990350000001
394,"rua ferreira, UBERABA, Curitiba",-25.4795032,-49.210679
395,"rua rua airton pizzato guzi, BOQUEIRÃO, Curitiba",-25.5249634,-49.2563006
396,"rua monteiro tourinho, BOA VISTA, Curitiba",-25.3872151,-49.2157317
397,"rua gabriel joaquim, SANTA CÂNDIDA, Curitiba",-25.3642084,-49.216932
398,"rua  zem bertapelle, SANTA FELICIDADE, Curitiba",-25.3975086,-49.331033
399,"rua joao bettega, CIDADE INDUSTRIAL, Curitiba",-25.4913046,-49.3224021
400,"rua flavio dallegrave, BARREIRINHA, Curitiba",-25.3722606,-49.2636662
401,"rua  ourizona, SÍTIO CERCADO, Curitiba",-25.5445824,-49.26188
402,"rua adelina ferreira muller, SÃO BRAZ, Curitiba",-25.4214621,-49.3381423
403,"rua vereador antonio giacomassi, ALTO BOQUEIRÃO, Curitiba",-25.5298145,-49.2382388
404,"rua tenente tito teixeira de castro, BOQUEIRÃO, Curitiba",-25.4924788,-49.2440178
405,"rua deputado heitor alencar furtado, CAMPO COMPRIDO, Curitiba",-25.4381247,-49.33185049999999
406,"rua  engenheiros rebouças, JARDIM BOTÂNICO, Curitiba",-25.4397255,-49.2539853
407,"rua joão malucelli neto, CIDADE INDUSTRIAL, Curitiba",-25.5304576,-49.3364296
408,"rua  joão malta de albuquerque maranhão, PINHEIRINHO, Curitiba",-25.5251897,-49.2859971
409,"rua  doutor salvador de maio, JARDIM BOTÂNICO, Curitiba",-25.4514866,-49.2413481
410,"rua josé brum, XAXIM, Curitiba",-25.5030794,-49.2622008
411,"rua cândido hartmann, BIGORRILHO, Curitiba",-25.4266893,-49.2990663
412,"rua r. leony azevedo rocha, CAJURU, Curitiba",-25.4469473,-49.2174967
413,"rua  aquelino orestes baglioli, PRADO VELHO, Curitiba",-25.450221,-49.247327
414,"rua  heitor ferreira, TATUQUARA, Curitiba",-25.5617628,-49.3143311
415,"rua  izabel raksa voluz, PINHEIRINHO, Curitiba",-25.5302229,-49.2827225
416,"rua são miguel do iguaçú, SÃO BRAZ, Curitiba",-25.4103887,-49.3602933
417,"rua joão cubas, NOVO MUNDO, Curitiba",-25.4844489,-49.2891127
418,"rua conselheiro laurindo, CENTRO, Curitiba",-25.4345074,-49.2630588
419,"rua cândido hartmann, SANTA CÂNDIDA, Curitiba",-25.4230347,-49.30854309999999
420,"rua marechal floriano peixoto, CENTRO, Curitiba",-25.4368785,-49.2690984
421,"rua embaixador  josé carlos de macedo soares, XAXIM, Curitiba",-25.5062413,-49.2822982
422,"rua castorino augusto rodrigues, CAJURU, Curitiba",-25.4629736,-49.2114816
423,"rua arnoldo wolff gaensly, ATUBA, Curitiba",-25.3758218,-49.2114172
424,"rua desembargador antônio de paula, BOQUEIRÃO, Curitiba",-25.5117406,-49.236536
425,"rua margarida meirelles, BARREIRINHA, Curitiba",-25.3729941,-49.267603
426,"rua denilson felipe de lima, CIDADE INDUSTRIAL, Curitiba",-25.5096348,-49.3269682
427,"rua joão reboli, SANTA CÂNDIDA, Curitiba",-25.3794279,-49.2336913
428,"rua barão de santo angelo, BOQUEIRÃO, Curitiba",-25.5123051,-49.2774138
429,"rua apucarana, SANTA FELICIDADE, Curitiba",-23.5536957,-51.4588028
430,"rua apucarana, SÍTIO CERCADO, Curitiba",-25.5428518,-49.2841886
431,"rua paranápoema, SÃO BRAZ, Curitiba",-25.4216699,-49.3519957
432,"rua opilio de mello pinheiro, NOVO MUNDO, Curitiba",-25.4963315,-49.2982094
433,"rua barão do serro azul, ALTO DA RUA XV, Curitiba",-25.4267186,-49.2707073
434,"rua barão do serro azul, ALTO DA GLÓRIA, Curitiba",-25.4267186,-49.2707073
435,"rua heitor baggio vidal, BAIRRO ALTO, Curitiba",-25.4151375,-49.2063532
436,"rua francisco zuneda ferreira da costa, BAIRRO ALTO, Curitiba",-25.4097907,-49.2179147
437,"rua alferes poli, CENTRO, Curitiba",-25.4393707,-49.2721257
438,"rua  davi xavier da silva, CIDADE INDUSTRIAL, Curitiba",-25.5061668,-49.32477739999999
439,"rua  presidente affonso camargo, CAJURU, Curitiba",-25.4399407,-49.2279898
440,"rua sete de setembro, CENTRO, Curitiba",-25.437902,-49.2671551
441,"rua et xapinhal, SÍTIO CERCADO, Curitiba",-25.5333191,-49.2746678
442,"rua carlos blanck, PORTÃO, Curitiba",-25.4790149,-49.3047686
443,"rua professor manoel de abreu, PORTÃO, Curitiba",-25.4787586,-49.3041283
444,"rua valentin deda, CAPÃO RASO, Curitiba",-25.5085797,-49.3021362
445,"rua airton eloi maganhotto, UMBARÁ, Curitiba",-25.5578436,-49.2858038
446,"rua paula prevedello gusso, BOA VISTA, Curitiba",-25.3810982,-49.2565727
447,"rua joanna z kurek, SANTA FELICIDADE, Curitiba",-25.4222912,-49.3584732
448,"rua ingo viebrantz, BOA VISTA, Curitiba",-25.3818238,-49.24145679999999
449,"rua sargento francisco da silva cotrin, TATUQUARA, Curitiba",-25.5598713,-49.3159715
450,"rua américo vespúcio, LINDÓIA, Curitiba",-25.4825529,-49.2792234
451,"rua pedro ribeiro dos santos, SANTA FELICIDADE, Curitiba",-25.398295,-49.3255
452,"rua deputado vidal vanhoni, TATUQUARA, Curitiba",-25.5620812,-49.3355413
453,"rua nossa senhora de caravaggio, SÍTIO CERCADO, Curitiba",-25.5557253,-49.2652026
454,"rua tenente francisco ferreira de souza, HAUER, Curitiba",-25.4814659,-49.2486507
455,"rua comendador fontana, CENTRO CÍVICO, Curitiba",-25.4190532,-49.2671599
456,"rua roberto taner, PILARZINHO, Curitiba",-25.3774862,-49.2927038
457,"rua oliveira viana, BOQUEIRÃO, Curitiba",-25.4929763,-49.2499666
458,"rua jovino do rosário, BOA VISTA, Curitiba",-25.393585,-49.2420288
459,"rua  oliveira viana, BOQUEIRÃO, Curitiba",-25.4929763,-49.2499666
460,"rua  lourenço pinto, CENTRO, Curitiba",-25.4356483,-49.268409
461,"rua via veneto, SANTA FELICIDADE, Curitiba",-25.4014227,-49.32990470000001
462,"rua tenente douglas acácio benetolo, PORTÃO, Curitiba",-25.4698717,-49.2976159
463,"rua max schubert, XAXIM, Curitiba",-25.5209659,-49.25302560000001
464,"rua sebastiao gomes oliveira, PINHEIRINHO, Curitiba",-25.5276656,-49.2779028
465,"rua madre clélia merloni, SANTA FELICIDADE, Curitiba",-25.3994424,-49.3300352
466,"rua osmário de lima, CAPÃO DA IMBUIA, Curitiba",-25.4373396,-49.21110299999999
467,"rua goiania, CAJURU, Curitiba",-25.4568093,-49.2195178
468,"rua pedro prosdócimo, TATUQUARA, Curitiba",-25.5672424,-49.34127480000001
469,"rua  anita garibaldi, BARREIRINHA, Curitiba",-25.3721337,-49.26244579999999
470,"rua desembargador antônio de paula, ALTO BOQUEIRÃO, Curitiba",-25.5178935,-49.2519132
471,"rua julio salsamendi, TATUQUARA, Curitiba",-25.5638328,-49.3373064
472,"rua jovenilson américo de oliveira, TATUQUARA, Curitiba",-25.560451,-49.3305674
473,"rua  r da trindade, CAJURU, Curitiba",-25.4553527,-49.2023429
474,"rua viaduto do centro politécnico, CAJURU, Curitiba",-25.4496739,-49.2312759
475,"rua professora luiza borges fanini, SÍTIO CERCADO, Curitiba",-25.5406791,-49.2661147
476,"rua  são vicente pallotti, CAJURU, Curitiba",-25.4483151,-49.2265215
477,"rua canadá, BACACHERI, Curitiba",-25.3929371,-49.2386451
478,"rua atílio bório, ALTO DA RUA XV, Curitiba",-25.4283861,-49.2527342
479,"rua da glória, CENTRO, Curitiba",-25.4206906,-49.2675972
480,"rua voluntários da pátria, CENTRO, Curitiba",-25.4326404,-49.2748814
481,"rua  brigadeiro eduardo gomes, PINHEIRINHO, Curitiba",-25.5194927,-49.28614109999999
482,"rua etelvina da luz de barros, CIDADE INDUSTRIAL, Curitiba",-25.4552229,-49.3452597
483,"rua catarina gabardo, XAXIM, Curitiba",-25.4968398,-49.2627394
484,"rua lothário boutin, PINHEIRINHO, Curitiba",-25.5089412,-49.2910146
485,"rua clemente ritz, CIDADE INDUSTRIAL, Curitiba",-25.4723325,-49.3475467
486,"rua tijucas do sul, SÍTIO CERCADO, Curitiba",-25.5444929,-49.2657766
487,"rua  república argentina, ÁGUA VERDE, Curitiba",-25.4598066,-49.2893373
488,"rua winston churchill, PINHEIRINHO, Curitiba",-25.5135173,-49.2955724
489,"rua euclides bandeira, AHÚ, Curitiba",-25.4069828,-49.270275
490,"rua maria de souza coelho, CIDADE INDUSTRIAL, Curitiba",-25.5059326,-49.3443497
491,"rua frederico cantarelli, BIGORRILHO, Curitiba",-25.4293438,-49.2983869
492,"rua paraíso do norte, ALTO BOQUEIRÃO, Curitiba",-25.5197327,-49.2472797
493,"rua alameda ecoligica burle maxi, SANTO INÁCIO, Curitiba",-25.4239933,-49.3096008
494,"rua  engenheiro costa barros, CAJURU, Curitiba",-25.45504,-49.2138926
495,"rua martim afonso, MERCÊS, Curitiba",-25.4288701,-49.2859246
496,"rua major fabriciano do rêgo barros, HAUER, Curitiba",-25.4738663,-49.2504375
497,"rua alfredo barcik, CAJURU, Curitiba",-25.4766723,-49.1976752
498,"rua desembargador hugo simas, MERCÊS, Curitiba",-25.4070176,-49.282917
499,"rua luiz atilio de macedo, CIDADE INDUSTRIAL, Curitiba",-25.5321962,-49.3402091
500,"rua milton camargo de oliveira, SÃO BRAZ, Curitiba",-25.4119288,-49.3547184
501,"rua cid marcondes de albuquerque, BOQUEIRÃO, Curitiba",-25.5183747,-49.2771255
502,"rua visconde de guarapuava, BATEL, Curitiba",-25.4437771,-49.2865881
503,"rua raggi izar, BOQUEIRÃO, Curitiba",-25.4926816,-49.2585983
504,"rua joão fain, BOQUEIRÃO, Curitiba",-25.4996557,-49.2229289
505,"rua professor oscar osvaldo jasper, UBERABA, Curitiba",-25.4840913,-49.2310194
506,"rua engenheiro costa barros, CAJURU, Curitiba",-25.45504,-49.2138926
507,"rua campo largo da piedade, PILARZINHO, Curitiba",-25.3908925,-49.2953947
508,"rua augusto de mari, PORTÃO, Curitiba",-25.4736638,-49.2883535
509,"rua joão koleski, CIDADE INDUSTRIAL, Curitiba",-25.4389476,-49.350824
510,"rua álvaro moleta, PILARZINHO, Curitiba",-25.3888665,-49.2968406
511,"rua ebano pereira, CENTRO, Curitiba",-25.4297549,-49.2747098
512,"rua joão ribeiro lemos, NOVO MUNDO, Curitiba",-25.4886214,-49.2889572
513,"rua dos dominicanos, BOA VISTA, Curitiba",-25.3934383,-49.2497088
514,"rua desembargador ernani almeida de abreu, TATUQUARA, Curitiba",-25.5612336,-49.33473439999999
515,"rua doutor arielly soares de silva, BOQUEIRÃO, Curitiba",-25.5122844,-49.2433541
516,"rua pastor nivaldo ramos, FAZENDINHA, Curitiba",-25.4777155,-49.3369393
517,"rua walter rodolfo behling, GUABIROTUBA, Curitiba",-25.4740133,-49.242446
518,"rua antonio augusto de brito, UMBARÁ, Curitiba",-25.5565737,-49.2799409
519,"rua roberto fritsch, SÍTIO CERCADO, Curitiba",-25.5487352,-49.2689485
520,"rua angelina braga cortezzi, SANTA FELICIDADE, Curitiba",-25.3810985,-49.32970940000001
521,"rua casemiro mitczuk, CIDADE INDUSTRIAL, Curitiba",-25.4591202,-49.3509333
522,"rua marte, SÍTIO CERCADO, Curitiba",-25.532106,-49.2702892
523,"rua sebastião bordeaux de oliveira, BARREIRINHA, Curitiba",-25.3761741,-49.2596252
524,"rua coronel américo walger, BOQUEIRÃO, Curitiba",-25.5359307,-49.2396506
525,"rua rosa leonardi, CAMPO COMPRIDO, Curitiba",-25.4727222,-49.3308478
526,"rua professor wenceslau muniz, CIDADE INDUSTRIAL, Curitiba",-25.5005477,-49.31478449999999
527,"rua doutor reynaldo machado, REBOUÇAS, Curitiba",-25.4480629,-49.2569001
528,"rua cid josé dos santos, UBERABA, Curitiba",-25.4857729,-49.1945771
529,"rua palmas, SÍTIO CERCADO, Curitiba",-25.5377887,-49.27528419999999
530,"rua coronel joaquim antonio de azevedo, ALTO BOQUEIRÃO, Curitiba",-25.5394404,-49.24864940000001
531,"rua irmãs nakadaira, CAMPO COMPRIDO, Curitiba",-25.4659762,-49.3419968
532,"rua trajano reis, SÃO FRANCISCO, Curitiba",-25.4237128,-49.27422809999999
533,"rua capitão leonidas marques, UBERABA, Curitiba",-25.488984,-49.210714
534,"rua padre germano mayer, CRISTO REI, Curitiba",-25.4312091,-49.2493393
535,"rua doutor dario lopes dos santos, CRISTO REI, Curitiba",-25.4360618,-49.2490111
536,"rua telêmaco borba, PINHEIRINHO, Curitiba",-25.5371109,-49.2959635
537,"rua professor osmar jasper, CAJURU, Curitiba",-25.4601547,-49.2132111
538,"rua da integração, BAIRRO ALTO, Curitiba",-25.4068423,-49.2076788
539,"rua rio guaporé, BAIRRO ALTO, Curitiba",-25.4009472,-49.2046262
540,"rua antonio molina bela, CIDADE INDUSTRIAL, Curitiba",-25.528565,-49.3339195
541,"rua albino kaminski, BAIRRO ALTO, Curitiba",-25.4093223,-49.2019718
542,"rua leon tolstoi, LINDÓIA, Curitiba",-25.477473,-49.2737176
543,"rua rua guacui, SÍTIO CERCADO, Curitiba",-25.555189,-49.24698
544,"rua padre landell de moura, CIDADE INDUSTRIAL, Curitiba",-25.5135408,-49.3269986
545,"rua hamurabi, SANTA CÂNDIDA, Curitiba",-25.3698767,-49.208825
546,"rua miguel caluf, CAJURU, Curitiba",-25.4556733,-49.2186768
547,"rua professor ary nogueira dos santos, BOQUEIRÃO, Curitiba",-25.5127667,-49.2445028
548,"rua reinaldo barcelos, SANTA QUITÉRIA, Curitiba",-25.461342,-49.3110301
549,"rua rua  luiz bohnestengel, ABRANCHES, Curitiba",-25.3573312,-49.2724695
550,"rua irene marquesini, BOQUEIRÃO, Curitiba",-25.595763,-49.3467597
551,"rua rua angelo legate, BOQUEIRÃO, Curitiba",-25.4808762,-49.3044253
552,"rua rei salomão, UBERABA, Curitiba",-25.3752798,-49.2406665
553,"rua nilo peçanha, BOM RETIRO, Curitiba",-25.4099645,-49.27568249999999
554,"rua abacates, CABRAL, Curitiba",-25.4781213,-49.2143324
555,"rua fernando simas, CENTRO, Curitiba",-25.4280028,-49.29049939999999
556,"rua cemum 24 hs, CAJURU, Curitiba",-25.4601547,-49.2132111
557,"rua major salvador joão fernandes, TATUQUARA, Curitiba",-25.5598011,-49.32832140000001
558,"rua  doutor jorge meyer filhoi, JARDIM BOTÂNICO, Curitiba",-25.4430714,-49.2439212
559,"rua  fioravante slaviero, NOVO MUNDO, Curitiba",-25.4900189,-49.3102129
560,"rua  desembargador cid campelo, CIDADE INDUSTRIAL, Curitiba",-25.49842,-49.337959
561,"rua são joão eudes, CAJURU, Curitiba",-25.459223,-49.2078795
562,"rua  xv de novembro, CENTRO, Curitiba",-25.4285759,-49.2650078
563,"rua velha do barigui, SÃO MIGUEL, Curitiba",-25.504611,-49.3491138
564,"rua pedro ivo, CENTRO, Curitiba",-25.43322,-49.2687126
565,"rua  24 de maio, REBOUÇAS, Curitiba",-25.4472437,-49.2694845
566,"rua antonio geronasso, BOA VISTA, Curitiba",-25.3966026,-49.2481878
567,"rua  paraná, BOA VISTA, Curitiba",-25.3886823,-49.2334685
568,"rua  sao valerio, CIDADE INDUSTRIAL, Curitiba",-25.4988204,-49.34447429999999
569,"rua  coronel zacarias, PRADO VELHO, Curitiba",-25.4480629,-49.2569001
570,"rua juscelino kubitschek de oliveira ld, CIDADE INDUSTRIAL, Curitiba",-25.4901584,-49.3446295
571,"rua cascavel, BOQUEIRÃO, Curitiba",-25.5150719,-49.24590999999999
572,"rua general mario tourinho, CAMPINA DO SIQUEIRA, Curitiba",-25.4379815,-49.3076809
573,"rua samuel cezar, ÁGUA VERDE, Curitiba",-25.4580105,-49.279423
574,"rua presidente wenceslau braz, PAROLIN, Curitiba",-25.4712931,-49.2601723
575,"rua canal belém, FAZENDINHA, Curitiba",-25.4854914,-49.2346413
576,"rua juscelino kubitschek de oliveira le, CIDADE INDUSTRIAL, Curitiba",-25.4901584,-49.3446295
577,"rua água verde, ÁGUA VERDE, Curitiba",-25.4530706,-49.2779229
578,"rua tomaz paris, SANTA FELICIDADE, Curitiba",-25.412473,-49.3575531
579,"rua airton pizzato gussi, XAXIM, Curitiba",-25.5254615,-49.2594763
580,"rua josé fabiano barcik, CAPÃO DA IMBUIA, Curitiba",-25.4593153,-49.2135109
581,"rua léa moreira de souza moura, CIDADE INDUSTRIAL, Curitiba",-25.5111147,-49.32572
582,"rua doutor muricy, CENTRO, Curitiba",-25.432445,-49.2722218
583,"rua  deputado heitor alencar furtado, SANTA FELICIDADE, Curitiba",-25.4390153,-49.3339651
584,"rua rua peláglia lepinski, CAJURU, Curitiba",-25.4541704,-49.2141019
585,"rua doutor urbano toniolo, CAJURU, Curitiba",-25.4463111,-49.2051484
586,"rua abrão winter, XAXIM, Curitiba",-25.5207647,-49.2613275
587,"rua jose luiz pontes, CIDADE INDUSTRIAL, Curitiba",-25.5117996,-49.334637
588,"rua francisco de almeida filho, CAMPO COMPRIDO, Curitiba",-25.4584581,-49.35639
589,"rua raul pompeia, FAZENDINHA, Curitiba",-25.4773351,-49.3340851
590,"rua  mateus leme, SÃO LOURENÇO, Curitiba",-25.3923365,-49.26919849999999
591,"rua quari, SÃO FRANCISCO, Curitiba",-25.4202126,-49.2770175
592,"rua tenente miguel anselmo da silva, PILARZINHO, Curitiba",-25.3908144,-49.2744227
593,"rua josé rodrigues pinheiro, CAPÃO RASO, Curitiba",-25.5136761,-49.3035659
594,"rua jacinto cunha, CIDADE INDUSTRIAL, Curitiba",-25.485251,-49.3490457
595,"rua santos andrade, CENTRO, Curitiba",-25.4288631,-49.2665169
596,"rua luiz gurgel do amaral valente, SÍTIO CERCADO, Curitiba",-25.5426557,-49.2664024
597,"rua izaac ferreira da cruz, PINHEIRINHO, Curitiba",-25.536178,-49.2834375
598,"rua brigadeiro eduardo gomes, PINHEIRINHO, Curitiba",-25.5194927,-49.28614109999999
599,"rua emiliano perneta, CENTRO, Curitiba",-25.4357707,-49.2760892
600,"rua  expedicionário estanislau wojcik, ALTO BOQUEIRÃO, Curitiba",-25.5358716,-49.2433378
601,"rua  oswaldo maciel, PILARZINHO, Curitiba",-25.3783556,-49.2813412
602,"rua  capitão leonidas marques, UBERABA, Curitiba",-25.488984,-49.210714
603,"rua coronel ary pinho, BOA VISTA, Curitiba",-25.3807451,-49.24401169999999
604,"rua velcy bolivar grandó, UBERABA, Curitiba",-25.4977423,-49.20934159999999
605,"rua frederico stadler junior, CAPÃO DA IMBUIA, Curitiba",-25.436511,-49.2155134
606,"rua  david bodziak, CACHOEIRA, Curitiba",-25.3531761,-49.2561964
607,"rua amintas de barros, CENTRO, Curitiba",-25.4256374,-49.2600833
608,"rua fernando de souza costa, FAZENDINHA, Curitiba",-25.4845669,-49.3266419
609,"rua coronel herminio alves cabral, BOQUEIRÃO, Curitiba",-25.5279574,-49.2461756
610,"rua doutor simão kossobudski, HAUER, Curitiba",-25.5009638,-49.2261694
611,"rua  campina da lagoa, ALTO BOQUEIRÃO, Curitiba",-25.5322246,-49.2545085
612,"rua  marginal), CAJURU, Curitiba",-25.4601547,-49.2132111
613,"rua miguel couto dos santos, PINHEIRINHO, Curitiba",-25.531711,-49.2818877
614,"rua francisco ferreira de souza, CAJURU, Curitiba",-25.4869295,-49.2459716
615,"rua mandirituba, SÍTIO CERCADO, Curitiba",-25.5444842,-49.2728087
616,"rua domingos imbronizio, MOSSUNGUÊ, Curitiba",-25.4350065,-49.3249084
617,"rua paraná, SANTA CÂNDIDA, Curitiba",-25.3798738,-49.2281309
618,"rua francisco rocha, BIGORRILHO, Curitiba",-25.4342596,-49.2938445
619,"rua deputado heitor alencar furtado, MOSSUNGUÊ, Curitiba",-25.437083,-49.3265897
620,"rua domingos gulin, BUTIATUVINHA, Curitiba",-25.3891494,-49.3440488
621,"rua  lourival wendler, CAJURU, Curitiba",-25.4690437,-49.2096127
622,"rua basílio fuck, XAXIM, Curitiba",-25.5129188,-49.265642
623,"rua estação tubo marumbi, PORTÃO, Curitiba",-25.4725296,-49.264487
624,"rua padre anchieta, MERCÊS, Curitiba",-25.4283594,-49.2876293
625,"rua antonio marcelino scalet, SÍTIO CERCADO, Curitiba",-25.5243938,-49.2732329
626,"rua antonio emilio cumim, UBERABA, Curitiba",-25.4838854,-49.2046052
627,"rua padre agostinho, BIGORRILHO, Curitiba",-25.4302397,-49.2961397
628,"rua prefeito erasto gaertner, BACACHERI, Curitiba",-25.3989117,-49.23628679999999
629,"rua dos bandeirantes, GUABIROTUBA, Curitiba",-25.4661539,-49.23714529999999
630,"rua henrique mattioli, FAZENDINHA, Curitiba",-25.4843502,-49.3303822
631,"rua guglielmo marconi, BAIRRO ALTO, Curitiba",-25.4194851,-49.2038635
632,"rua  batista ganz, SANTO INÁCIO, Curitiba",-25.4290031,-49.3171919
633,"rua dos alfeneiros, BOA VISTA, Curitiba",-25.3781859,-49.2493388
634,"rua padre paulo warkocz, CIDADE INDUSTRIAL, Curitiba",-25.4381559,-49.35511899999999
635,"rua professor fernando moreira, CENTRO, Curitiba",-25.4299698,-49.2825818
636,"rua miguel felipe daher, ORLEANS, Curitiba",-25.4288277,-49.3561225
637,"rua presidente affonso camargo, CENTRO, Curitiba",-25.4355836,-49.2581919
638,"rua fioravante slaviero, NOVO MUNDO, Curitiba",-25.4900189,-49.3102129
639,"rua doutor dario lopes dos santos, JARDIM BOTÂNICO, Curitiba",-25.4381826,-49.2406566
640,"rua julio mesquita, FAZENDINHA, Curitiba",-25.4873728,-49.3260995
641,"rua brigadeiro franco, CENTRO, Curitiba",-25.4338764,-49.2821296
642,"rua saturnino arruda dos santos, PILARZINHO, Curitiba",-25.3888603,-49.2846069
643,"rua marechal anor teixeira dos santos, BOA VISTA, Curitiba",-25.3808053,-49.2450825
644,"rua quadra 15, PINHEIRINHO, Curitiba",-25.5264537,-49.26993359999999
645,"rua marco polo, BAIRRO ALTO, Curitiba",-25.4182954,-49.2048529
646,"rua carlos essenfelder, BOQUEIRÃO, Curitiba",-25.4993345,-49.2303143
647,"rua santo antônio do sudoeste, CIDADE INDUSTRIAL, Curitiba",-25.50005,-49.323973
648,"rua  presidente faria, CENTRO, Curitiba",-25.4273866,-49.2685354
649,"rua  sete de setembro, JARDIM BOTÂNICO, Curitiba",-25.4342339,-49.2576837
650,"rua antonia molina bella, CIDADE INDUSTRIAL, Curitiba",-25.528565,-49.3339195
651,"rua pc. rui barbosa, CENTRO, Curitiba",-25.436289,-49.2738464
652,"rua adriana ceres zago bueno, TATUQUARA, Curitiba",-25.562365,-49.3353625
653,"rua jornalista aderbal g stresser, CAJURU, Curitiba",-25.4728564,-49.1987211
654,"rua  izaac ferreira da cruz, SÍTIO CERCADO, Curitiba",-25.5359612,-49.272154
655,"rua pero vaz de caminha, TATUQUARA, Curitiba",-25.5646949,-49.33250839999999
656,"rua dona alice tibirica, BIGORRILHO, Curitiba",-25.4362504,-49.3011962
657,"rua cabo cornélio de souza martins, UBERABA, Curitiba",-25.4872352,-49.2045387
658,"rua octavia leal penteado, TATUQUARA, Curitiba",-25.5789292,-49.3316472
659,"rua isaias fernandes, CAMPO DE SANTANA, Curitiba",-25.5778436,-49.3248441
660,"rua jornalista emílio zola florenzano, TATUQUARA, Curitiba",-25.5759821,-49.3362475
661,"rua adriano ceres zaco bueno, TATUQUARA, Curitiba",-25.562365,-49.3353625
662,"rua  pedro ivo, CENTRO, Curitiba",-25.43322,-49.2687126
663,"rua do redentor, SÃO FRANCISCO, Curitiba",-25.4205537,-49.2749359
664,"rua coronel arthur ferreira de abreu, CAPÃO DA IMBUIA, Curitiba",-25.4400043,-49.2146432
665,"rua estação tubo, SÍTIO CERCADO, Curitiba",-25.5357377,-49.2746687
666,"rua desembargador carlos pinheiro guimaraes, SÍTIO CERCADO, Curitiba",-25.5443701,-49.25519449999999
667,"rua tomas parize, SANTA FELICIDADE, Curitiba",-25.359372,-49.3338197
668,"rua major heitor guimarães, CAMPINA DO SIQUEIRA, Curitiba",-25.4396543,-49.3097658
669,"rua  prefeito erasto gaertner, BACACHERI, Curitiba",-25.3989117,-49.23628679999999
670,"rua 24 de maio, CENTRO, Curitiba",-25.4392855,-49.2733733
671,"rua  voltaire, BARREIRINHA, Curitiba",-25.3776796,-49.2564994
672,"rua canal belém, SÃO FRANCISCO, Curitiba",-25.4854914,-49.2346413
673,"rua tv. francisco de freitas saldanha, BOA VISTA, Curitiba",-25.3883395,-49.2491581
674,"rua randolfo serzedelo, FANNY, Curitiba",-25.475833,-49.2629944
675,"rua luiz leopoldo landal, CAPÃO RASO, Curitiba",-25.4899012,-49.30396
676,"rua isaias regis de miranda, HAUER, Curitiba",-25.4822926,-49.2523006
677,"rua jesus alves da cruz, CAMPO DE SANTANA, Curitiba",-25.58578,-49.3224566
678,"rua jordania, CAJURU, Curitiba",-25.4657758,-49.20589529999999
679,"rua carlos amoretty osório, SÍTIO CERCADO, Curitiba",-25.5436011,-49.2504708
680,"rua desembargador ermelino de leão, CENTRO, Curitiba",-25.4295447,-49.2758828
681,"rua monsenhor celso, CENTRO, Curitiba",-25.4317002,-49.2704132
682,"rua são josé, CRISTO REI, Curitiba",-25.43308,-49.2441663
683,"rua curitiba paranaguá br-277, CAJURU, Curitiba",-25.4853498,-49.1868741
684,"rua pedro ramos de oliveira, ALTO BOQUEIRÃO, Curitiba",-25.5223386,-49.2367581
685,"rua  roraima, CAJURU, Curitiba",-25.4535439,-49.2118513
686,"rua anita garibaldi, JUVEVÊ, Curitiba",-25.4101995,-49.2570493
687,"rua  eduardo sprada, AUGUSTA, Curitiba",-25.4536247,-49.3689879
688,"rua barao de antonina, CENTRO CÍVICO, Curitiba",-25.4226241,-49.2697768
689,"rua toufic raad, CAJURU, Curitiba",-25.4458374,-49.2146444
690,"rua raimundo nina rodrigues, CAJURU, Curitiba",-25.4460565,-49.2155254
691,"rua luiz barreto murat, BAIRRO ALTO, Curitiba",-25.4204863,-49.2089935
692,"rua coronel francisco h dos santos, JARDIM DAS AMÉRICAS, Curitiba",-25.4543647,-49.2302153
693,"rua salvador, CAJURU, Curitiba",-25.4563584,-49.2209027
694,"rua engenheira enedina alves marques, CAJURU, Curitiba",-25.4511661,-49.2185231
695,"rua rio negro, BAIRRO ALTO, Curitiba",-25.4255932,-49.2033303
696,"rua doutor edemar ernsen, CAMPO COMPRIDO, Curitiba",-25.4379499,-49.346288
697,"rua rua dr levi buqueira, SÍTIO CERCADO, Curitiba",-25.530751,-49.2679073
698,"rua desembargador westphalen, REBOUÇAS, Curitiba",-25.4462852,-49.26656550000001
699,"rua boaventura, CAJURU, Curitiba",-25.4617526,-49.2019445
700,"rua  general carneiro, CENTRO, Curitiba",-25.4287147,-49.2603764
701,"rua ivo leão, CENTRO CÍVICO, Curitiba",-25.417137,-49.265905
702,"rua doutor carlos bruno breithaupt, JARDIM DAS AMÉRICAS, Curitiba",-25.4661071,-49.2188458
703,"rua miguel oleskowicz, SÍTIO CERCADO, Curitiba",-25.5307031,-49.25949989999999
704,"rua câmara júnior, JARDIM DAS AMÉRICAS, Curitiba",-25.462053,-49.2225816
705,"rua nossa senhora de lourdes, JARDIM DAS AMÉRICAS, Curitiba",-25.4546952,-49.2265817
706,"rua professor joão doetzer, JARDIM DAS AMÉRICAS, Curitiba",-25.463742,-49.222947
707,"rua  guilherme ihlenfeldt, BACACHERI, Curitiba",-25.3874252,-49.226677
708,"rua eng alberto monteiro de carvalho, CAPÃO DA IMBUIA, Curitiba",-25.4359762,-49.2114722
709,"rua dante melara, CAJURU, Curitiba",-25.4533372,-49.2055863
710,"rua engenheiro francisco beltrão, JARDIM SOCIAL, Curitiba",-25.4171609,-49.2316665
711,"rua archangelo smaniotto, JARDIM DAS AMÉRICAS, Curitiba",-25.4617412,-49.2212942
712,"rua teófilo otoni, CAJURU, Curitiba",-25.4564925,-49.2107885
713,"rua barão do serro azul, CENTRO, Curitiba",-25.4267186,-49.2707073
714,"rua romário martins, JARDIM SOCIAL, Curitiba",-25.4122711,-49.2379119
715,"rua coronel augusto de almeida garret, TARUMÃ, Curitiba",-25.4288423,-49.2099552
716,"rua  waldemar loureiro campos, BOQUEIRÃO, Curitiba",-25.5072687,-49.24719349999999
717,"rua octacyr reinaldo mion, XAXIM, Curitiba",-25.4926032,-49.2685973
718,"rua  eduardo pinto da rocha, SÍTIO CERCADO, Curitiba",-25.557006,-49.2545362
719,"rua  antonio augusto de brito, UMBARÁ, Curitiba",-25.5565737,-49.2799409
720,"rua  coronel victor agner kendrick, SÍTIO CERCADO, Curitiba",-25.5333949,-49.2609789
721,"rua itacolomi, PORTÃO, Curitiba",-25.4794728,-49.3041184
722,"rua não informado, SÍTIO CERCADO, Curitiba",-25.5443488,-49.26656209999999
723,"rua jaime reis, CENTRO, Curitiba",-25.4263896,-49.2768453
724,"rua professor naoki kishida, SÍTIO CERCADO, Curitiba",-25.550319,-49.2486141
725,"rua candido de abreu, CENTRO CÍVICO, Curitiba",-25.4193125,-49.2688741
726,"rua rua dr. celso luiz peixoto ribas, SANTA QUITÉRIA, Curitiba",-25.4654718,-49.3209551
727,"rua quadra 5**, SÍTIO CERCADO, Curitiba",-25.5443488,-49.26656209999999
728,"rua sebastiao alves ferreira, BAIRRO ALTO, Curitiba",-25.4086216,-49.20423719999999
729,"rua augusto stellfeld, CENTRO, Curitiba",-25.4301415,-49.2794847
730,"rua ari caramão arruda, CIDADE INDUSTRIAL, Curitiba",-25.4968392,-49.3445872
731,"rua canal belém, SÍTIO CERCADO, Curitiba",-25.4854914,-49.2346413
732,"rua rodolpho doubek, CIDADE INDUSTRIAL, Curitiba",-25.5129587,-49.3318478
733,"rua professor fernando moreira, MERCÊS, Curitiba",-25.4296045,-49.2843116
734,"rua aluizio finzetto, PRADO VELHO, Curitiba",-25.4615011,-49.2547808
735,"rua agostinha dos santos schroeder, CIDADE INDUSTRIAL, Curitiba",-25.456552,-49.35677949999999
736,"rua  canadá, BACACHERI, Curitiba",-25.3929371,-49.2386451
737,"rua  anita garibaldi, BOA VISTA, Curitiba",-25.387101,-49.2610471
738,"rua  tereza luka, SANTA FELICIDADE, Curitiba",-25.4084411,-49.3169477
739,"rua joão dembinski, CIDADE INDUSTRIAL, Curitiba",-25.4632912,-49.3455793
740,"rua alfredo hauer, HAUER, Curitiba",-25.4823646,-49.2559827
741,"rua  jornalista alceu chichorro, BAIRRO ALTO, Curitiba",-25.4127693,-49.202939
742,"rua antonio petruzziello, PILARZINHO, Curitiba",-25.3889961,-49.2939137
743,"rua prudente de moraes, MERCÊS, Curitiba",-25.4279544,-49.283546
744,"rua margarida de andrade weber, CIDADE INDUSTRIAL, Curitiba",-25.541563,-49.33903
745,"rua  engenheiros rebouças, REBOUÇAS, Curitiba",-25.4427616,-49.26188639999999
746,"rua prefeito maurício fruet, CAJURU, Curitiba",-25.4413006,-49.220149
747,"rua martim afonso, CAPÃO DA IMBUIA, Curitiba",-25.4315538,-49.2927134
748,"rua carlos pioli, BOM RETIRO, Curitiba",-25.4105668,-49.2749823
749,"rua francisco de camargo pinto, CAPÃO RASO, Curitiba",-25.5096494,-49.3027458
750,"rua cidade de laguna, FAZENDINHA, Curitiba",-25.4778676,-49.33740659999999
751,"rua josé ingenieros, SANTA FELICIDADE, Curitiba",-25.4004218,-49.3017219
752,"rua almir nelson de almeida, CAMPO COMPRIDO, Curitiba",-25.4593642,-49.3290766
753,"rua  paulo friebe, BAIRRO ALTO, Curitiba",-25.4136342,-49.21745
754,"rua rua são josé dos pinhais, SÍTIO CERCADO, Curitiba",-25.5430988,-49.2622851
755,"rua das cotovias, NOVO MUNDO, Curitiba",-25.4926468,-49.2823395
756,"rua almirante gonçalves, ÁGUA VERDE, Curitiba",-25.4507596,-49.2744528
757,"rua doutor eugenio bertolli, SANTA FELICIDADE, Curitiba",-25.3734383,-49.3316282
758,"rua gilberto tesseroli padilha, SÍTIO CERCADO, Curitiba",-25.5322549,-49.262847
759,"rua  professora maria de assumpção, BOQUEIRÃO, Curitiba",-25.4879895,-49.2481352
760,"rua estação tubo vila acordes, SÍTIO CERCADO, Curitiba",-25.524879,-49.2688175
761,"rua carlos gomes, CENTRO, Curitiba",-27.7171699,-51.9126334
762,"rua  hussein ibrahim omairy, SÍTIO CERCADO, Curitiba",-25.5536787,-49.259569
763,"rua nilo peçanha, SÃO FRANCISCO, Curitiba",-25.4182127,-49.27454059999999
764,"rua erval velho, CIDADE INDUSTRIAL, Curitiba",-25.4598424,-49.3504495
765,"rua pedro violani, CAJURU, Curitiba",-25.4596596,-49.2089808
766,"rua maria lopes arruda, UMBARÁ, Curitiba",-25.5547538,-49.2767156
767,"rua david tows, XAXIM, Curitiba",-25.5207647,-49.2613275
768,"rua  dos pioneiros, ALTO BOQUEIRÃO, Curitiba",-25.5345335,-49.26999139999999
769,"rua maria lucia locher de athayde, CIDADE INDUSTRIAL, Curitiba",-25.4928822,-49.3528982
770,"rua paraiba, GUAÍRA, Curitiba",-25.470164,-49.2776453
771,"rua doutor marins alves de camargo, TINGUI, Curitiba",-25.3812618,-49.2246654
772,"rua darci vargas, CIDADE INDUSTRIAL, Curitiba",-25.4782662,-49.347528
773,"rua affife mansur, CAPÃO RASO, Curitiba",-25.4955063,-49.3034119
774,"rua cap. dr. antonio josé, XAXIM, Curitiba",-25.5047061,-49.2751558
775,"rua padre leonardo nunes, PORTÃO, Curitiba",-25.4688676,-49.2996609
776,"rua felinto bento vianna, PORTÃO, Curitiba",-25.4799865,-49.306993
777,"rua treze de maio, CENTRO, Curitiba",-25.4267312,-49.2721759
778,"rua paraná, CABRAL, Curitiba",-25.4028932,-49.2493827
779,"rua pérola do oeste, SÍTIO CERCADO, Curitiba",-25.5536839,-49.2746877
780,"rua bento viana, ÁGUA VERDE, Curitiba",-25.4473991,-49.28308759999999
781,"rua pedro andretta, CIDADE INDUSTRIAL, Curitiba",-25.5011293,-49.3491957
782,"rua pedro eloy de souza, BAIRRO ALTO, Curitiba",-25.4200537,-49.2053296
783,"rua passeio público, CENTRO, Curitiba",-25.4253585,-49.26742910000001
784,"rua aristides césar de oliveira filho, UBERABA, Curitiba",-25.4814784,-49.1985828
785,"rua tupi, ATUBA, Curitiba",-25.3887831,-49.20517110000001
786,"rua manoel celestino boaventura, CAJURU, Curitiba",-25.4131943,-49.3556721
787,"rua emilio betrini bardozeck, UBERABA, Curitiba",-25.4974195,-49.20575909999999
788,"rua deputado agostinho rodrigues, TABOÃO, Curitiba",-25.3667381,-49.2782798
789,"rua candido de abreu, CAJURU, Curitiba",-25.4193125,-49.2688741
790,"rua salvador ferrante, BOQUEIRÃO, Curitiba",-25.4977867,-49.2400828
791,"rua ministro flávio suplicy de lacerda, SÍTIO CERCADO, Curitiba",-25.5485326,-49.2574182
792,"rua agostinho ribeiro de lima, PINHEIRINHO, Curitiba",-25.524169,-49.270334
793,"rua joão batista chiarello, CIDADE INDUSTRIAL, Curitiba",-25.4693215,-49.34172419999999
794,"rua josé de alencar, ALTO DA RUA XV, Curitiba",-25.428273,-49.2538181
795,"rua cuiabá, CAJURU, Curitiba",-25.4550742,-49.2112716
796,"rua porecatú, SÍTIO CERCADO, Curitiba",-25.5423758,-49.2823254
797,"rua rua jose rossetin, SANTO INÁCIO, Curitiba",-25.4267856,-49.3416349
798,"rua são judas tadeu, CAPÃO RASO, Curitiba",-25.4967504,-49.2798279
799,"rua professora ivete rocha kugler, CIDADE INDUSTRIAL, Curitiba",-25.5474171,-49.3418861
800,"rua nivaldo pereira, SÍTIO CERCADO, Curitiba",-25.5512741,-49.2619009
801,"rua leonardo javorski, FAZENDINHA, Curitiba",-25.4898183,-49.3260002
802,"rua rutildo polido, CAJURU, Curitiba",-25.465955,-49.1934936
803,"rua juarez borges, TATUQUARA, Curitiba",-25.5721056,-49.3314217
804,"rua trajano reis, CENTRO, Curitiba",-25.4246544,-49.2741
805,"rua francisco nunes, REBOUÇAS, Curitiba",-25.4502776,-49.25535929999999
806,"rua madame cure, PINHEIRINHO, Curitiba",-25.527816,-49.29186550000001
807,"rua rio jaguaribe, BAIRRO ALTO, Curitiba",-25.399409,-49.2046851
808,"rua praça maria polenta, FAZENDINHA, Curitiba",-25.4510068,-49.2882399
809,"rua doutor aluízio frança, SANTA FELICIDADE, Curitiba",-25.4254907,-49.3063668
810,"rua bruno mertens, BARREIRINHA, Curitiba",-25.3760833,-49.26396279999999
811,"rua alexandre toscani filho, SANTA FELICIDADE, Curitiba",-25.4159917,-49.3249038
812,"rua pedro gusso, CIDADE INDUSTRIAL, Curitiba",-25.504151,-49.31519420000001
813,"rua joão gualberto, ALTO DA GLÓRIA, Curitiba",-25.4187596,-49.26385800000001
814,"rua  arthur martins franco, CIDADE INDUSTRIAL, Curitiba",-25.4955884,-49.3352458
815,"rua rua dos funcionarios, CABRAL, Curitiba",-25.406527,-49.2517266
816,"rua dolores duran, XAXIM, Curitiba",-25.5111716,-49.2756245
817,"rua professor joão soares barcelos, BOQUEIRÃO, Curitiba",-25.4943145,-49.2478645
818,"rua praça do semeador, SÍTIO CERCADO, Curitiba",-25.539029,-49.249333
819,"rua  dos pioneiros, SÍTIO CERCADO, Curitiba",-25.5345335,-49.26999139999999
820,"rua rua juscelino kubishek, CIDADE INDUSTRIAL, Curitiba",-25.4588383,-49.3590828
821,"rua  humberto calixto fruet, CIDADE INDUSTRIAL, Curitiba",-25.5037786,-49.32097419999999
822,"rua  lupionópolis, SÍTIO CERCADO, Curitiba",-25.5452172,-49.2678545
823,"rua venezuela, BACACHERI, Curitiba",-25.4092882,-49.2390183
824,"rua josé pires da silva, CAMPO DE SANTANA, Curitiba",-25.5904094,-49.3274453
825,"rua campo mourão, ALTO BOQUEIRÃO, Curitiba",-25.537002,-49.2406577
826,"rua juscelino kubitschek de oliveira ec, CIDADE INDUSTRIAL, Curitiba",-25.4901584,-49.3446295
827,"rua  emilio de menezes, SÃO FRANCISCO, Curitiba",-25.4186976,-49.2794435
828,"rua antonio lago, BOA VISTA, Curitiba",-25.3887284,-49.2392782
829,"rua francisco sielski, CIDADE INDUSTRIAL, Curitiba",-25.4625162,-49.34740499999999
830,"rua  angelina turesso cavalim, CIDADE INDUSTRIAL, Curitiba",-25.5145764,-49.3258454
831,"rua luiz leopoldo landal, NOVO MUNDO, Curitiba",-25.4899012,-49.30396
832,"rua nilo peçanha, PILARZINHO, Curitiba",-25.3957372,-49.2732336
833,"rua cruzeiro do sul, SÍTIO CERCADO, Curitiba",-25.5399214,-49.2804496
834,"rua professor paulo d´assumpção, CAJURU, Curitiba",-25.4702729,-49.2216341
835,"rua professor paulo d´assumpção, UBERABA, Curitiba",-25.4702729,-49.2216341
836,"rua delegado miguel zacarias, BOA VISTA, Curitiba",-25.3800417,-49.2460749
837,"rua professor pedro viriato parigot de souza, SANTO INÁCIO, Curitiba",-25.4372573,-49.3349692
838,"rua mauá, ALTO DA GLÓRIA, Curitiba",-25.4189954,-49.2611743
839,"rua eugênio flor, TABOÃO, Curitiba",-25.3742089,-49.2814398
840,"rua  visconde de guarapuava, ALTO DA RUA XV, Curitiba",-25.4298873,-49.2511027
841,"rua alterosa, BAIRRO ALTO, Curitiba",-25.3971545,-49.209006
842,"rua rua da graça, TATUQUARA, Curitiba",-25.5647384,-49.3282697
843,"rua cidade de laguna, TATUQUARA, Curitiba",-25.4750745,-49.340517
844,"rua antonio gai, TATUQUARA, Curitiba",-25.57027,-49.31276039999999
845,"rua professor lauro zak, XAXIM, Curitiba",-25.507103,-49.2704698
846,"rua maria da luz rocha belão, XAXIM, Curitiba",-25.5022194,-49.26071839999999
847,"rua joão evangelista filho, CIDADE INDUSTRIAL, Curitiba",-25.4981179,-49.349621
848,"rua valdir pontes, CIDADE INDUSTRIAL, Curitiba",-25.459012,-49.3471257
849,"rua elvira marquesini vaz, SÍTIO CERCADO, Curitiba",-25.5416054,-49.2757328
850,"rua maria luiza curial dos santos, BOQUEIRÃO, Curitiba",-25.510984,-49.245852
851,"rua jaime rodrigues da rocha, PINHEIRINHO, Curitiba",-25.5161217,-49.3021749
852,"rua odair pazello, CAPÃO RASO, Curitiba",-25.5033239,-49.3014604
853,"rua joão barbosa de almeida, XAXIM, Curitiba",-25.5156242,-49.2672665
854,"rua deputado ardinal ribas, NOVO MUNDO, Curitiba",-25.5037669,-49.3018992
855,"rua alcebíades plaisant, ÁGUA VERDE, Curitiba",-25.4589198,-49.281844
856,"rua vereador miguel aicar de suss, PINHEIRINHO, Curitiba",-25.5229452,-49.2990277
857,"rua luiz scuissatto, FAZENDINHA, Curitiba",-25.4854555,-49.3356329
858,"rua vitalino rech, UMBARÁ, Curitiba",-25.5592496,-49.282782
859,"rua general pedro labatut, PORTÃO, Curitiba",-25.4756569,-49.3092936
860,"rua rua francisco monteiro pinhas, SÍTIO CERCADO, Curitiba",-25.5314393,-49.2708342
861,"rua josé de oliveira franco, BAIRRO ALTO, Curitiba",-25.4130432,-49.2060711
862,"rua marquês de olinda, FAZENDINHA, Curitiba",-25.4896316,-49.3343711
863,"rua stella camargo arzua, TATUQUARA, Curitiba",-25.5646354,-49.3264367
864,"rua professora olga balster, CAJURU, Curitiba",-25.441461,-49.2196369
865,"rua nicolau serrato sobrinho, NOVO MUNDO, Curitiba",-25.4860902,-49.2849885
866,"rua souza mello, PILARZINHO, Curitiba",-25.389135,-49.2864944
867,"rua mauricio ricardo dos santos, CACHOEIRA, Curitiba",-25.3503955,-49.25259
868,"rua jose izidoro filho, PILARZINHO, Curitiba",-25.3816235,-49.29985139999999
869,"rua joaquim de oliveira cruz, PINHEIRINHO, Curitiba",-25.5273901,-49.2751795
870,"rua lauro grein, CIDADE INDUSTRIAL, Curitiba",-25.4824275,-49.3527468
871,"rua paulo roberto rego barros biscaia, FAZENDINHA, Curitiba",-25.4800448,-49.3355967
872,"rua professor waldir de jesus, CAPÃO RASO, Curitiba",-25.5059746,-49.3016818
873,"rua doutor josé de almeida pimpão, SÍTIO CERCADO, Curitiba",-25.5373344,-49.25455059999999
874,"rua durval borges de macedo, CAPÃO DA IMBUIA, Curitiba",-25.4316302,-49.2161479
875,"rua professora maria josé godoy, BOM RETIRO, Curitiba",-25.4128568,-49.276803
876,"rua amazonas de souza azevedo, BACACHERI, Curitiba",-25.4126036,-49.2220735
877,"rua andré visinoni, CIDADE INDUSTRIAL, Curitiba",-25.436252,-49.3594849
878,"rua guilherme bruschz, SÍTIO CERCADO, Curitiba",-25.539978,-49.2611633
879,"rua joão negrão, CENTRO, Curitiba",-25.4357272,-49.26395979999999
880,"rua alfredo pires furiatti, XAXIM, Curitiba",-25.4916438,-49.2704268
881,"rua rua helda bertoldi, TATUQUARA, Curitiba",-25.5881313,-49.3358285
882,"rua  odacir schilipak, SANTA CÂNDIDA, Curitiba",-25.3745922,-49.2433191
883,"rua comendador franco, PRADO VELHO, Curitiba",-25.4491406,-49.2461285
884,"rua jose casagrande, VISTA ALEGRE, Curitiba",-25.4101455,-49.3037284
885,"rua guilherme ihlenfeldt, BACACHERI, Curitiba",-25.3874252,-49.226677
886,"rua josé ferreira da rocha, PINHEIRINHO, Curitiba",-25.5302673,-49.2882852
887,"rua manoel ribas, SANTA FELICIDADE, Curitiba",-25.4040133,-49.3286557
888,"rua presidente affonso camargo, CAJURU, Curitiba",-25.4399407,-49.2279898
889,"rua helena walesko manika, SANTA CÂNDIDA, Curitiba",-25.3547027,-49.2385691
890,"rua doutor aluízio frança, MERCÊS, Curitiba",-25.4254317,-49.3063806
891,"rua geraldino ramiro dos santos, CIDADE INDUSTRIAL, Curitiba",-25.4857004,-49.3517161
892,"rua tibagi, CENTRO, Curitiba",-25.4323284,-49.262692
893,"rua dom pedro i, ÁGUA VERDE, Curitiba",-25.4594517,-49.2820738
894,"rua pastor carlos frank, BOQUEIRÃO, Curitiba",-25.5147855,-49.2277145
895,"rua  orlando luis lamarca, BOQUEIRÃO, Curitiba",-25.5060611,-49.3238034
896,"rua paulo turkiewicz, TARUMÃ, Curitiba",-25.4228717,-49.2134206
897,"rua engenheiro ostoja roguski, JARDIM BOTÂNICO, Curitiba",-25.4416234,-49.2411384
898,"rua josé simões, UMBARÁ, Curitiba",-25.560004,-49.283783
899,"rua cei adriano rudine, PORTÃO, Curitiba",-25.4808762,-49.3044253
900,"rua cid campelo, CIDADE INDUSTRIAL, Curitiba",-25.49842,-49.337959
901,"rua manoel borges, CAPÃO DA IMBUIA, Curitiba",-25.4358596,-49.2215241
902,"rua parana, CABRAL, Curitiba",-25.4028932,-49.2493827
903,"rua  sargento haroldo cordeiro júnior, AUGUSTA, Curitiba",-25.4561174,-49.3795104
904,"rua carolina dos anjos, PINHEIRINHO, Curitiba",-25.519733,-49.3057631
905,"rua riachuelo, CENTRO, Curitiba",-25.4281694,-49.2693792
906,"rua heitor de andrade, JARDIM DAS AMÉRICAS, Curitiba",-25.4588594,-49.2293769
907,"rua  joão gava, ABRANCHES, Curitiba",-25.3860475,-49.2731137
908,"rua da trindade, CAJURU, Curitiba",-25.4553527,-49.2023429
909,"rua antenor pereira, PILARZINHO, Curitiba",-25.3894603,-49.3011413
910,"rua das carmelitas, BOQUEIRÃO, Curitiba",-25.4998038,-49.2315025
911,"rua capitão barcímio sicupira, CIDADE INDUSTRIAL, Curitiba",-25.4645772,-49.33950129999999
912,"rua estrela do sul, CIDADE INDUSTRIAL, Curitiba",-25.5009427,-49.3402414
913,"rua alberto klemtz, PORTÃO, Curitiba",-25.4726276,-49.3111182
914,"rua  adilio ramos, BAIRRO ALTO, Curitiba",-25.4108029,-49.2058046
915,"rua nair lunardelli ramos, TATUQUARA, Curitiba",-25.5733913,-49.3266863
916,"rua  winston churchill, PINHEIRINHO, Curitiba",-25.5135173,-49.2955724
917,"rua capitão joseph pereira quevedo, MERCÊS, Curitiba",-25.4224955,-49.2962065
918,"rua guarantã, SÃO BRAZ, Curitiba",-25.413879,-49.3563044
919,"rua antonio oliveira dos santos, CIDADE INDUSTRIAL, Curitiba",-25.5101913,-49.32565
920,"rua rio tietê, BAIRRO ALTO, Curitiba",-25.396488,-49.20538639999999
921,"rua  leocádio robison de lima damazio, ALTO BOQUEIRÃO, Curitiba",-25.5325073,-49.2427223
922,"rua carlos custel filho, GANCHINHO, Curitiba",-25.5570563,-49.2494996
923,"rua francisco derosso, ALTO BOQUEIRÃO, Curitiba",-25.5293019,-49.2479026
924,"rua doutora ana maria mansur gisi, ALTO BOQUEIRÃO, Curitiba",-25.550805,-49.2458243
925,"rua plácido prevedello, AHÚ, Curitiba",-25.3965847,-49.264057
926,"rua estrada da graciosa, BAIRRO ALTO, Curitiba",-25.3914498,-49.15995299999999
927,"rua francisco de assis ferreira, CIDADE INDUSTRIAL, Curitiba",-25.52555,-49.3357186
928,"rua marechal deodoro, CENTRO, Curitiba",-25.4291336,-49.2641455
929,"rua antonio de oliveira santos, CIDADE INDUSTRIAL, Curitiba",-25.5101913,-49.32565
930,"rua silveira peixoto, ÁGUA VERDE, Curitiba",-25.4478086,-49.2841892
931,"rua rua curupaitr, SANTA QUITÉRIA, Curitiba",-25.4604312,-49.3113215
932,"rua padre anchieta, CAMPINA DO SIQUEIRA, Curitiba",-25.4346234,-49.3030647
933,"rua barão do serro azul, CENTRO CÍVICO, Curitiba",-25.4267186,-49.2707073
934,"rua coronel enéas, SÃO FRANCISCO, Curitiba",-25.4279758,-49.2721825
935,"rua agostinho merlin, PORTÃO, Curitiba",-25.4685805,-49.30515949999999
936,"rua nova esperança, SÍTIO CERCADO, Curitiba",-25.5467368,-49.2735417
937,"rua cristiano strobel, ALTO BOQUEIRÃO, Curitiba",-25.5204777,-49.2481339
938,"rua prefeito lothário meissner, JARDIM BOTÂNICO, Curitiba",-25.444067,-49.2388825
939,"rua alberto wierbiski, SÃO LOURENÇO, Curitiba",-25.3850851,-49.2631826
940,"rua flávio dallegrave, BOA VISTA, Curitiba",-25.3911144,-49.2578213
941,"rua dermeval da costa e silva, FAZENDINHA, Curitiba",-25.4759075,-49.3604038
942,"rua bernardo jacintho da veiga, NOVO MUNDO, Curitiba",-25.4881569,-49.3037906
943,"rua joao parolin, PRADO VELHO, Curitiba",-25.4574966,-49.2591433
944,"rua humberto calixto fruet, CIDADE INDUSTRIAL, Curitiba",-25.5037786,-49.32097419999999
945,"rua bernardo jacintho da veiga, CAPÃO RASO, Curitiba",-25.4881569,-49.3037906
946,"rua  raul machado berges, CIDADE INDUSTRIAL, Curitiba",-25.514502,-49.3318036
947,"rua  enette dubard, TATUQUARA, Curitiba",-25.5676444,-49.33917750000001
948,"rua pastor roberto mendes rabello, CIDADE INDUSTRIAL, Curitiba",-25.5069309,-49.3389939
949,"rua das olarias, SANTA CÂNDIDA, Curitiba",-25.3745966,-49.2126832
950,"rua holanda, BOA VISTA, Curitiba",-25.3964097,-49.2497052
951,"rua riachuelo, CIDADE INDUSTRIAL, Curitiba",-25.4281694,-49.2693792
952,"rua antonio ferreira do nascimento filho, CAMPO COMPRIDO, Curitiba",-25.4630554,-49.3407229
953,"rua vereador garcia rodrigues velho, CABRAL, Curitiba",-25.4041136,-49.25025240000001
954,"rua professora ana de oliveira viana, FANNY, Curitiba",-25.4785694,-49.2660472
955,"rua  padre estanislau piasecki, CAMPO COMPRIDO, Curitiba",-25.4362357,-49.3581679
956,"rua josé loureiro, CENTRO, Curitiba",-25.4320879,-49.2683131
957,"rua emilia chopacz, CAMPO COMPRIDO, Curitiba",-25.4526673,-49.3524588
958,"rua doutor pedrosa, CENTRO, Curitiba",-25.437949,-49.2765643
959,"rua general jose ferreira de barros, SÍTIO CERCADO, Curitiba",-25.53543,-49.2546741
960,"rua eurico fonseca dos santos, XAXIM, Curitiba",-25.5022631,-49.2724349
961,"rua zacarias, CENTRO, Curitiba",-25.4881825,-49.207207
962,"rua major theolindo ferreira ribas, BOQUEIRÃO, Curitiba",-25.4921098,-49.2532335
963,"rua anne frank, BOQUEIRÃO, Curitiba",-25.5025784,-49.235673
964,"rua tomaz parize, SANTA FELICIDADE, Curitiba",48.856614,2.3522219
965,"rua padre paulo canelles, SANTA CÂNDIDA, Curitiba",-25.3546518,-49.2402842
966,"rua curupaitis, SANTA QUITÉRIA, Curitiba",-25.4629185,-49.3052076
967,"rua sete de setembro, JARDIM BOTÂNICO, Curitiba",-25.4342339,-49.2576837
968,"rua irene tulio, SANTA FELICIDADE, Curitiba",-25.3819322,-49.3245857
969,"rua maestro carlos frank, ALTO BOQUEIRÃO, Curitiba",-25.5219994,-49.2400046
970,"rua estrada da graciosa, CIDADE INDUSTRIAL, Curitiba",-25.3902072,-49.1968785
971,"rua pastor carlos frank, BUTIATUVINHA, Curitiba",-25.5147855,-49.2277145
972,"rua anita garibaldi, AHÚ, Curitiba",-25.3804015,-49.2614923
973,"rua wanda rocha de souza, PILARZINHO, Curitiba",-25.3849095,-49.2878451
974,"rua  prefeito maurício fruet, CAJURU, Curitiba",-25.4413006,-49.220149
975,"rua alexandre salata, GUAÍRA, Curitiba",-25.4735259,-49.2693003
976,"rua frederico lambertucci, FAZENDINHA, Curitiba",-25.4856234,-49.3287935
977,"rua valdemar loureiro de campos, HAUER, Curitiba",-25.5072687,-49.24719349999999
979,"rua francisco josé martins, UBERABA, Curitiba",-25.4918371,-49.2262833
980,"rua professora joanita bernett passos, BOQUEIRÃO, Curitiba",-25.5055541,-49.2265838
981,"rua república argentina, NOVO MUNDO, Curitiba",-25.4713135,-49.29432629999999
982,"rua  piraí do sul, AUGUSTA, Curitiba",-25.4558311,-49.3784713
983,"rua antonio geroslau ferreira, CIDADE INDUSTRIAL, Curitiba",-25.4964458,-49.3517881
984,"rua  comendador macedo, CENTRO, Curitiba",-25.4304072,-49.2616038
985,"rua augusto stellfeld, BIGORRILHO, Curitiba",-25.4342806,-49.2906103
986,"rua wacílio zacachuka, TATUQUARA, Curitiba",-25.5579175,-49.337228
987,"rua  rio mucuri, BAIRRO ALTO, Curitiba",-25.3980469,-49.2053289
988,"rua castro, ÁGUA VERDE, Curitiba",-25.4579702,-49.2787533
989,"rua aristides cesar de oliveira filho, UBERABA, Curitiba",-25.4814784,-49.1985828
990,"rua eufrásio correia, CENTRO, Curitiba",-25.4367919,-49.266988
991,"rua  sete de setembro, CENTRO, Curitiba",-25.437902,-49.2671551
992,"rua josé augusto da silva, SÍTIO CERCADO, Curitiba",-25.5351129,-49.2620526
993,"rua jornalista paulino de almeida, CAJURU, Curitiba",-25.4725546,-49.2091821
994,"rua  jose sella (umbará), UMBARÁ, Curitiba",-25.5561898,-49.2753184
995,"rua desembargador ernani guarita cartaxo, CAPÃO RASO, Curitiba",-25.5068345,-49.30098
996,"rua eduardo pinto da rocha, ALTO BOQUEIRÃO, Curitiba",-25.5483803,-49.2459498
997,"rua winston churchill, CAPÃO RASO, Curitiba",-25.5067755,-49.2957937
998,"rua  eduardo sprada, CAMPO COMPRIDO, Curitiba",-25.4484621,-49.3326942
999,"rua joão antonio da silva, PINHEIRINHO, Curitiba",-25.5269858,-49.2951403
1000,"rua itatiaia, PORTÃO, Curitiba",-25.4780069,-49.30150460000001
1001,"rua engenheiro ademar munhoz, UBERABA, Curitiba",-25.4782392,-49.2219872
1002,"rua gabriel ribeiro, SÍTIO CERCADO, Curitiba",-25.5491918,-49.2674642
1003,"rua walenty golas, CAMPO COMPRIDO, Curitiba",-25.4382116,-49.3414481
1004,"rua  engenheiro joão visinoni, SANTA FELICIDADE, Curitiba",-25.437832,-49.3600737
1005,"rua roraima, CAJURU, Curitiba",-25.4535439,-49.2118513
1006,"rua  jandaia do sul, SÍTIO CERCADO, Curitiba",-25.5542486,-49.2540622
1007,"rua  brigadeiro eduardo gomes, CAJURU, Curitiba",-25.5194927,-49.28614109999999
1008,"rua nicolau josé gravina, SANTA FELICIDADE, Curitiba",-25.4176959,-49.31814300000001
1009,"rua expedicionário  francisco a  de oliveira, SÍTIO CERCADO, Curitiba",-25.5388496,-49.2473529
1010,"rua antonio moacir ribeiro batista, CIDADE INDUSTRIAL, Curitiba",-25.49947,-49.3216542
1011,"rua mariano torres, REBOUÇAS, Curitiba",-25.4359191,-49.2602639
1012,"rua lourival wendler, CAJURU, Curitiba",-25.4690437,-49.2096127
1013,"rua adelina ferreira muller lt e e  copel, SÃO BRAZ, Curitiba",-25.4214621,-49.3381423
1014,"rua  joão batista scucato, ATUBA, Curitiba",-25.3840221,-49.2009531
1015,"rua joão batista scucato, ATUBA, Curitiba",-25.3840221,-49.2009531
1016,"rua sete de setembro, PORTÃO, Curitiba",-25.4401856,-49.273565
1017,"rua est. guilherme weigert, SANTA CÂNDIDA, Curitiba",-25.3565388,-49.2380363
1018,"rua guilherme weigert, SANTA CÂNDIDA, Curitiba",-25.3610197,-49.2317468
1019,"rua  josé teixeira de mello, FAZENDINHA, Curitiba",-25.4858249,-49.3260841
1020,"rua  winston churchil, CAPÃO RASO, Curitiba",-25.5067755,-49.2957937
1021,"rua helena moscibroski borges, CAPÃO DA IMBUIA, Curitiba",-25.435114,-49.2219724
1022,"rua jose alcides de lima, NOVO MUNDO, Curitiba",-25.4926192,-49.3065644
1023,"rua carlos benato, SÃO BRAZ, Curitiba",-25.4068111,-49.35012589999999
1024,"rua rubens maister, BARREIRINHA, Curitiba",-25.3766606,-49.2603848
1025,"rua joão parolin, PRADO VELHO, Curitiba",-25.4574966,-49.2591433
1026,"rua marechal rondon, CAPÃO RASO, Curitiba",-25.511165,-49.300933
1027,"rua arthur martins franco, FAZENDINHA, Curitiba",-25.4871197,-49.33604649999999
1028,"rua ney itibere pia de andrade, SANTO INÁCIO, Curitiba",-25.4233092,-49.323065
1029,"rua  iguaçú, ÁGUA VERDE, Curitiba",-25.4471259,-49.2823466
1030,"rua lori victor culack, FAZENDINHA, Curitiba",-25.4780946,-49.325892
1031,"rua antonio jacomazi, ALTO BOQUEIRÃO, Curitiba",-25.5273766,-49.2331197
1032,"rua manoel aristides de farias, BARREIRINHA, Curitiba",-25.3686642,-49.2521853
1033,"rua senador alencar guimarães, CENTRO, Curitiba",-25.4343259,-49.2745061
1034,"rua júlio eduardo gineste, SANTA QUITÉRIA, Curitiba",-25.458443,-49.31142639999999
1035,"rua ferrara, SANTA FELICIDADE, Curitiba",-25.3966692,-49.3121007
1036,"rua marquês do paraná, ÁGUA VERDE, Curitiba",-25.460388,-49.2865602
1037,"rua elsa luttmann, UBERABA, Curitiba",-25.48842,-49.199803
1038,"rua erasmo maeder, BAIRRO ALTO, Curitiba",-25.4171804,-49.2105982
1039,"rua ney pacheco, CIDADE INDUSTRIAL, Curitiba",-25.5303969,-49.3369949
1040,"rua joão fuggiato, SÍTIO CERCADO, Curitiba",-25.5396297,-49.25076199999999
1041,"rua durval pacheco de carvalho, FANNY, Curitiba",-25.4799531,-49.2680014
1042,"rua rio grande do sul, ÁGUA VERDE, Curitiba",-25.4662664,-49.2825946
1043,"rua zoologico do boqueirão, BOQUEIRÃO, Curitiba",-25.5030083,-49.2367172
1044,"rua ricardo padovani filho, CIDADE INDUSTRIAL, Curitiba",-25.496094,-49.33731290000001
1045,"rua guilherme fugmann, CIDADE INDUSTRIAL, Curitiba",-25.5007956,-49.3225147
1046,"rua manoel celestino boaventura, SÃO BRAZ, Curitiba",-25.4131943,-49.3556721
1047,"rua  laudelino ferreira lopes, CAPÃO RASO, Curitiba",-25.5055742,-49.3045792
1048,"rua juscelino kubitschek de oliveira ec, SÍTIO CERCADO, Curitiba",-25.4901584,-49.3446295
1049,"rua juscelino kubitschek de oliveira ec, SANTA CÂNDIDA, Curitiba",-25.4901584,-49.3446295
1050,"rua doutor aluízio frança, SANTO INÁCIO, Curitiba",-25.4254907,-49.3063668
1051,"rua  marechal floriano peixoto, REBOUÇAS, Curitiba",-25.4454801,-49.2648526
1052,"rua  teófilo otoni, CAJURU, Curitiba",-25.4564925,-49.2107885
1053,"rua marco polo, CIDADE INDUSTRIAL, Curitiba",-25.4182954,-49.2048529
1054,"rua jardim alegre, SÍTIO CERCADO, Curitiba",-25.5520173,-49.2526263
1055,"rua nd                  av contorno leste, UMBARÁ, Curitiba",-25.5528225,-49.2776234
1056,"rua  clávio molinari, CAJURU, Curitiba",-25.4396,-49.2114482
1057,"rua kellers, SÃO FRANCISCO, Curitiba",-25.4272309,-49.2767894
1058,"rua nilson gomes ramos, ABRANCHES, Curitiba",-25.3606478,-49.276718
1059,"rua moacir potier, XAXIM, Curitiba",-25.5041773,-49.2666299
1060,"rua brasília, XAXIM, Curitiba",-25.5064759,-49.26414949999999
1061,"rua das goiabeiras, CIDADE INDUSTRIAL, Curitiba",-25.4900411,-49.352723
1062,"rua arnaldo gusi, XAXIM, Curitiba",-25.5262648,-49.25990909999999
1063,"rua paulo fagnani, SÍTIO CERCADO, Curitiba",-25.5582763,-49.25869789999999
1064,"rua elza ribeiro, XAXIM, Curitiba",-25.5269141,-49.25791599999999
1065,"rua  joaquim cardoso da silveira, BOQUEIRÃO, Curitiba",-25.5065322,-49.22092989999999
1066,"rua orlando de moura leite, BARREIRINHA, Curitiba",-25.3721038,-49.2558715
1067,"rua cassemiro mikissuqi, CAMPO COMPRIDO, Curitiba",-25.4668761,-49.3274627
1068,"rua henrique correia, BAIRRO ALTO, Curitiba",-25.4066671,-49.2032163
1069,"rua josé alcides de lima, NOVO MUNDO, Curitiba",-25.4926192,-49.3065644
1070,"rua josé serrato, SANTA CÂNDIDA, Curitiba",-25.3780163,-49.23550729999999
1071,"rua herculano carlos franco de souza, ÁGUA VERDE, Curitiba",-25.450961,-49.2927696
1072,"rua alcino guanabara, HAUER, Curitiba",-25.4832797,-49.2530541
1073,"rua das andorinhas, NOVO MUNDO, Curitiba",-25.4923907,-49.2853187
1074,"rua frederico escorsin, SÃO BRAZ, Curitiba",-25.4207766,-49.3612749
1075,"rua jornalista caio machado, SANTA QUITÉRIA, Curitiba",-25.455932,-49.31032769999999
1076,"rua benedito frança, CAPÃO DA IMBUIA, Curitiba",-25.4382562,-49.2063651
1077,"rua maria teodoro vilalva, CIDADE INDUSTRIAL, Curitiba",-25.505931,-49.3221815
1078,"rua santa bernadethe, LINDÓIA, Curitiba",-25.4808988,-49.2745927
1079,"rua lodovico geronazzo, BOA VISTA, Curitiba",-25.3853567,-49.2476789
1080,"rua josé risseto, SANTA FELICIDADE, Curitiba",-25.4106946,-49.3334116
1081,"rua doutor hugo camargo, CIDADE INDUSTRIAL, Curitiba",-25.4949583,-49.3461814
1082,"rua méxico, BACACHERI, Curitiba",-25.4078259,-49.2382274
1083,"rua camile flammarion, BARREIRINHA, Curitiba",-25.3695761,-49.2538594
1084,"rua norberto tramujas decker, SANTO INÁCIO, Curitiba",-25.4244291,-49.3380746
1085,"rua da lua, SÍTIO CERCADO, Curitiba",-25.5309178,-49.2619633
1086,"rua  presidente affonso camargo, JARDIM BOTÂNICO, Curitiba",-25.4353638,-49.2573899
1087,"rua jocelino kubscheck, CIDADE INDUSTRIAL, Curitiba",-25.4506781,-49.355733
1088,"rua  luiz carlos canesso, ALTO BOQUEIRÃO, Curitiba",-25.5337832,-49.2395474
1089,"rua visconde de nacar, CENTRO, Curitiba",-25.4290968,-49.27964679999999
1090,"rua francisco scorsato, SÍTIO CERCADO, Curitiba",-25.5404763,-49.2529031
1091,"rua antonio bertoldi, CAMPO DE SANTANA, Curitiba",-25.5895655,-49.3385421
1092,"rua professor pedro viriato parigot de souza, MOSSUNGUÊ, Curitiba",-25.4358787,-49.3265474
1093,"rua thales de paula da silva, CIDADE INDUSTRIAL, Curitiba",-25.5040295,-49.3297882
1094,"rua  ernani santiago de oliveira, CENTRO CÍVICO, Curitiba",-25.4165107,-49.26842509999999
1095,"rua  av. do trabalhador (cajuru), CAJURU, Curitiba",-25.4541704,-49.2141019
1096,"rua lodovico kaminski, CIDADE INDUSTRIAL, Curitiba",-25.4755627,-49.3590222
1097,"rua  cataratas do iguaçú, ATUBA, Curitiba",-25.3835286,-49.1980191
1098,"rua presidente wenceslau braz, GUAÍRA, Curitiba",-25.4716523,-49.2624678
1099,"rua  senador accioly filho, CIDADE INDUSTRIAL, Curitiba",-25.4974267,-49.3253023
1100,"rua luiz delfino, SANTA QUITÉRIA, Curitiba",-25.4688832,-49.3139641
1101,"rua luiz gallieri, UBERABA, Curitiba",-25.4932486,-49.21719
1102,"rua tomaz paris, SÃO BRAZ, Curitiba",-25.412473,-49.3575531
1103,"rua pedro leineker, CIDADE INDUSTRIAL, Curitiba",-25.5281949,-49.334827
1104,"rua ignes de souza soares, TATUQUARA, Curitiba",-25.5498496,-49.29864389999999
1105,"rua rua francisco alves de oliveira, CAJURU, Curitiba",-25.5388496,-49.2473529
1106,"rua lia garbaccio, TATUQUARA, Curitiba",-25.5634608,-49.3185797
1107,"rua emanoel ernesto bertoldi, CAMPO DE SANTANA, Curitiba",-25.5881313,-49.3358285
1108,"rua carlos guimarães, SÍTIO CERCADO, Curitiba",-25.5443701,-49.25519449999999
1109,"rua doutor francisco natel de camargo, BOA VISTA, Curitiba",-25.3719241,-49.2432059
1110,"rua dr. josé palú, NOVO MUNDO, Curitiba",-25.4826597,-49.2883265
1111,"rua pedro mossoline gasparin, SANTA FELICIDADE, Curitiba",-25.3801092,-49.33215269999999
1112,"rua capitão guilherme inche, CAJURU, Curitiba",-25.4562781,-49.21097109999999
1113,"rua domingos benatto, BUTIATUVINHA, Curitiba",-25.403801,-49.3594538
1114,"rua cidade de coronel freitas, CAMPO COMPRIDO, Curitiba",-25.4545252,-49.3537853
1115,"rua durvalina purfiria dos santos, CIDADE INDUSTRIAL, Curitiba",-25.5085224,-49.3255692
1116,"rua neusa de fátima ferreira, PINHEIRINHO, Curitiba",-25.5284407,-49.2754747
1117,"rua edviges sofia valesko, XAXIM, Curitiba",-25.5064759,-49.26414949999999
1118,"rua josé tomasi, SANTA FELICIDADE, Curitiba",-25.4152925,-49.3391204
1119,"rua cezar constante schiavon, SÍTIO CERCADO, Curitiba",-25.5514605,-49.267839
1120,"rua abel scuissiato, PORTÃO, Curitiba",-25.469744,-49.2818049
1121,"rua inair da silva duarte, PINHEIRINHO, Curitiba",-25.5326912,-49.28198769999999
1122,"rua professora antonia reginato vianna, CAPÃO DA IMBUIA, Curitiba",-25.4356983,-49.2093463
1123,"rua do ibitirati, UBERABA, Curitiba",-25.4805652,-49.20181299999999
1124,"rua herbert neal, SANTA QUITÉRIA, Curitiba",-25.4613903,-49.31629890000001
1125,"rua são cristóvao, GUAÍRA, Curitiba",-25.4706487,-49.2758496
1126,"rua manoel dos santos, UBERABA, Curitiba",-25.4884943,-49.2283584
1127,"rua  coronel francisco h dos santos, JARDIM DAS AMÉRICAS, Curitiba",-25.4543647,-49.2302153
1128,"rua sérgio amaury lustosa, CAMPO DE SANTANA, Curitiba",-25.5843643,-49.3411984
1129,"rua pedro n pizzatto, MERCÊS, Curitiba",-25.4261552,-49.2902222
1130,"rua jornalista silvino a. batista, TATUQUARA, Curitiba",-25.56451,-49.33288839999999
1131,"rua theodoro makiolka, SANTA CÂNDIDA, Curitiba",-25.367401,-49.238242
1132,"rua inácio martins, XAXIM, Curitiba",-25.5085965,-49.2577414
1133,"rua zeferino da costa, XAXIM, Curitiba",-25.514298,-49.2787211
1134,"rua arnold ferreira veloso, CIDADE INDUSTRIAL, Curitiba",-25.4289541,-49.267137
1135,"rua aristides borsato, FAZENDINHA, Curitiba",-25.47906,-49.3174696
1136,"rua waldemar kost, HAUER, Curitiba",-25.4852738,-49.2526187
1137,"rua cláudio erbano, SÍTIO CERCADO, Curitiba",-25.5471666,-49.2586106
1138,"rua agustin cortizo penelas, SÍTIO CERCADO, Curitiba",-25.5311242,-49.27150409999999
1139,"rua dagoberto de moura, PINHEIRINHO, Curitiba",-25.5314581,-49.2836133
1140,"rua josé alcides de lima, PINHEIRINHO, Curitiba",-25.5124909,-49.3062704
1141,"rua araruna, SÍTIO CERCADO, Curitiba",-25.5420915,-49.2891602
1142,"rua santa regina, CAPÃO RASO, Curitiba",-25.5023397,-49.2898424
1143,"rua vadislau burginski varchaki, ABRANCHES, Curitiba",-25.5902514,-49.34264659999999
1144,"rua harvey de barros silva, PILARZINHO, Curitiba",-25.3910489,-49.2931855
1145,"rua sebastião alves ferreira, BAIRRO ALTO, Curitiba",-25.4086216,-49.20423719999999
1146,"rua joel pedrini, UBERABA, Curitiba",-25.4893523,-49.2285553
1147,"rua irmão libério plêwnia, CAJURU, Curitiba",-25.4705229,-49.1946873
1148,"rua celso luiz peixoto ribas, CAMPO COMPRIDO, Curitiba",-25.4664734,-49.3211908
1149,"rua munhoz da rocha, BACACHERI, Curitiba",-25.4054584,-49.2471961
1150,"rua iguaçú, REBOUÇAS, Curitiba",-25.4423319,-49.2695849
1151,"rua fagundes varela, JARDIM SOCIAL, Curitiba",-25.4145728,-49.2326231
1152,"rua aref kudri, PINHEIRINHO, Curitiba",-25.5203702,-49.2980109
1153,"rua helena carcereri pikarski, UBERABA, Curitiba",-25.4890003,-49.19995180000001
1154,"rua  joão miqueletto, ALTO BOQUEIRÃO, Curitiba",-25.5517523,-49.23478309999999
1155,"rua munhoz da rocha, CABRAL, Curitiba",-25.4073645,-49.2480343
1156,"rua paulo rio branco de macedo, SÍTIO CERCADO, Curitiba",-25.5497932,-49.2654545
1157,"rua maria augusta soares, SÍTIO CERCADO, Curitiba",-25.5412969,-49.2704007
1158,"rua joão negrão, REBOUÇAS, Curitiba",-25.4455462,-49.25909739999999
1159,"rua dos ferroviários, CAJURU, Curitiba",-25.4505226,-49.2076132
1160,"rua velha do barigui, CIDADE INDUSTRIAL, Curitiba",-25.4942291,-49.3450126
1161,"rua engenheiro niépce da silva, PORTÃO, Curitiba",-25.4713064,-49.29146309999999
1162,"rua  frederico stadler junior, CAPÃO DA IMBUIA, Curitiba",-25.436511,-49.2155134
1163,"rua humberto bertoldi, CIDADE INDUSTRIAL, Curitiba",-25.5851417,-49.3386024
1164,"rua victor ferreira do amaral, ALTO DA RUA XV, Curitiba",-25.427371,-49.23681999999999
1165,"rua santa edwiges, ABRANCHES, Curitiba",-25.3564835,-49.2738858
1166,"rua  cândido hartmann, SANTA FELICIDADE, Curitiba",-25.4214015,-49.3220827
1167,"rua professor kydd james galliano, CASCATINHA, Curitiba",-25.4087259,-49.3116839
1168,"rua anita garibaldi, CACHOEIRA, Curitiba",-25.3565185,-49.2635362
1169,"rua rua eunice betine bartoszeck, CAJURU, Curitiba",-25.4864573,-49.2036619
1170,"rua céu azul, SANTA CÂNDIDA, Curitiba",-25.3684036,-49.2081217
1171,"rua aparecida feliciano caetano, CIDADE INDUSTRIAL, Curitiba",-25.5168198,-49.3316348
1172,"rua  cidade de coronel freitas, CAMPO COMPRIDO, Curitiba",-25.4545252,-49.3537853
1173,"rua paraíba, GUAÍRA, Curitiba",-25.470164,-49.2776453
1174,"rua manoel hygino dos santos, GUAÍRA, Curitiba",-25.46774,-49.2698422
1175,"rua professor josé maurício higgins, XAXIM, Curitiba",-25.4990237,-49.2540912
1176,"rua mario mendes de lara, UBERABA, Curitiba",-25.4813787,-49.2317099
1177,"rua beija flor, ALTO BOQUEIRÃO, Curitiba",-25.5184934,-49.1700052
1178,"rua vicente de carvalho, CAJURU, Curitiba",-25.4517591,-49.2226809
1179,"rua marechal otavio saldanha mazza, CAPÃO RASO, Curitiba",-25.5085244,-49.2974064
1180,"rua heitor stockler de frança, CENTRO CÍVICO, Curitiba",-25.4228599,-49.2685898
1181,"rua avenida canal, ALTO BOQUEIRÃO, Curitiba",-25.5617361,-49.2523512
1182,"rua theophilo mansur, NOVO MUNDO, Curitiba",-25.4926263,-49.3083997
1183,"rua cid marcondes de albuquerque, SÍTIO CERCADO, Curitiba",-25.5262949,-49.2676847
1184,"rua oliveira viana, HAUER, Curitiba",-25.4832372,-49.2547097
1185,"rua xanxerê, CIDADE INDUSTRIAL, Curitiba",-25.4631043,-49.3442763
1186,"rua 1 de maio, BOQUEIRÃO, Curitiba",-25.5138195,-49.2783394
1187,"rua jaime reis, UMBARÁ, Curitiba",-25.4263896,-49.2768453
1188,"rua da divina providência, SANTA QUITÉRIA, Curitiba",-25.4600725,-49.3101744
1189,"rua saldanha marinho, BIGORRILHO, Curitiba",-25.4366071,-49.2925239
1190,"rua joão bientinez, CAPÃO DA IMBUIA, Curitiba",-25.4390689,-49.2221622
1191,"rua joao bientinez, CAPÃO DA IMBUIA, Curitiba",-25.4390689,-49.2221622
1192,"rua  professora maria de assumpção, HAUER, Curitiba",-25.4832902,-49.25040310000001
1193,"rua ibiporã, ALTO BOQUEIRÃO, Curitiba",-25.5373326,-49.24062869999999
1194,"rua osório damas de oliveira, PINHEIRINHO, Curitiba",-25.5212785,-49.3045996
1195,"rua joão manoel geremias, SANTA CÂNDIDA, Curitiba",-25.3637725,-49.2266337
1196,"rua josé gulin, BACACHERI, Curitiba",-25.3951271,-49.2194791
1197,"rua iporã, ALTO BOQUEIRÃO, Curitiba",-25.5314795,-49.23536559999999
1198,"rua engenheiros rebouças, REBOUÇAS, Curitiba",-25.4427616,-49.26188639999999
1199,"rua santo bozzi, XAXIM, Curitiba",-25.5087048,-49.2646295
1200,"rua lourenço garzaro, BUTIATUVINHA, Curitiba",-25.3912176,-49.3542222
1201,"rua augusto litz, SANTA FELICIDADE, Curitiba",-25.3906762,-49.3338972
1202,"rua prefeito samuel mileo, SÍTIO CERCADO, Curitiba",-25.5399412,-49.2545461
1203,"rua coronel luiz josé dos santos, BOQUEIRÃO, Curitiba",-25.4980576,-49.2461272
1204,"rua jurandir mendes de lima (radialista jurandir carioca), SÍTIO CERCADO, Curitiba",-25.5554978,-49.2481186
1205,"rua cruz machado, CENTRO, Curitiba",-25.4304931,-49.2754906
1206,"rua almirante gonçalves, REBOUÇAS, Curitiba",-25.446843,-49.264283
1207,"rua izidoro wosch, SANTA CÂNDIDA, Curitiba",-25.3669426,-49.2450903
1208,"rua dona eleusina plaisant, SANTA QUITÉRIA, Curitiba",-25.4620358,-49.3134068
1209,"rua padre francisco madej, SANTA FELICIDADE, Curitiba",-25.4378056,-49.3568368
1210,"rua  joão batista zagonel passos, XAXIM, Curitiba",-25.5215411,-49.26125740000001
1211,"rua agenor antonio rodrigues, SÍTIO CERCADO, Curitiba",-25.5432227,-49.2566293
1212,"rua r. angelo marqueto, AUGUSTA, Curitiba",-25.4746593,-49.3749237
1213,"rua othon cristovao cescatto, SÍTIO CERCADO, Curitiba",-25.539215,-49.2732231
1214,"rua  antônio zanon, TATUQUARA, Curitiba",-25.5677822,-49.3221379
1215,"rua  desembargador carlos pinheiro guimaraes, SÍTIO CERCADO, Curitiba",-25.5443701,-49.25519449999999
1216,"rua brasília, NOVO MUNDO, Curitiba",-25.494606,-49.2838158
1217,"rua angelo marqueto, AUGUSTA, Curitiba",-25.4746593,-49.3749237
1218,"rua joão estevão dos santos, NOVO MUNDO, Curitiba",-25.5289153,-49.27876209999999
1219,"rua  cidade de coronel freitas, CIDADE INDUSTRIAL, Curitiba",-25.4545252,-49.3537853
1220,"rua alcides munhoz, SANTO INÁCIO, Curitiba",-25.4201205,-49.2937436
1221,"rua são paulo, GUAÍRA, Curitiba",-25.4671717,-49.2774543
1222,"rua desembagador cid campelo, CIDADE INDUSTRIAL, Curitiba",-25.49842,-49.337959
1223,"rua rodolfo augusto, ALTO BOQUEIRÃO, Curitiba",-25.5297234,-49.2450817
1224,"rua presidente carlos cavalcanti, CENTRO, Curitiba",-25.4254857,-49.2732076
1225,"rua jose bajerski, ABRANCHES, Curitiba",-25.3592971,-49.27236509999999
1226,"rua engenheiro benedito mario da silva, CAJURU, Curitiba",-25.4695338,-49.20579009999999
1227,"rua doutor luiz losso filho, NOVO MUNDO, Curitiba",-25.4900577,-49.3111699
1228,"rua natalio fagundes, PINHEIRINHO, Curitiba",-25.5224217,-49.2936673
1229,"rua milena costa, PILARZINHO, Curitiba",-25.3952221,-49.29327300000001
1230,"rua salvador josé correia coelho, CIDADE INDUSTRIAL, Curitiba",-25.4528141,-49.3568533
1231,"rua  presidente wenceslau braz, GUAÍRA, Curitiba",-25.4716523,-49.2624678
1232,"rua  odir gomes da rocha, TATUQUARA, Curitiba",-25.5730183,-49.3351395
1233,"rua  travessa 97, SÍTIO CERCADO, Curitiba",-25.5443488,-49.26656209999999
1234,"rua pastor waldomiro bileski, SÍTIO CERCADO, Curitiba",-25.5429877,-49.2613677
1235,"rua ministro flavio suplicy de lacerda, SÍTIO CERCADO, Curitiba",-25.5485326,-49.2574182
1236,"rua rodolfo bernardelli, UBERABA, Curitiba",-25.4890483,-49.2262657
1237,"rua  eugênio josé de souza, GUAÍRA, Curitiba",-25.4682063,-49.27856509999999
1238,"rua  paraná, BACACHERI, Curitiba",-25.3924694,-49.2394589
1239,"rua maestro carlos frank, BOQUEIRÃO, Curitiba",-25.5200534,-49.2353157
1240,"rua  jornalista geraldo russe, PILARZINHO, Curitiba",-25.3894342,-49.2947585
1241,"rua  sebastião marcos luiz, CAJURU, Curitiba",-25.4616164,-49.2042023
1242,"rua manoel valdomiro de macedo, PILARZINHO, Curitiba",-25.5142532,-49.3182753
1243,"rua joão antônio xavier, ÁGUA VERDE, Curitiba",-25.4574783,-49.2769673
1244,"rua professora maria de assumpção, BOQUEIRÃO, Curitiba",-25.4879895,-49.2481352
1245,"rua nossa senhora da paz, BOQUEIRÃO, Curitiba",-25.5094318,-49.2290016
1246,"rua joão augusto martins, CAMPO COMPRIDO, Curitiba",-25.4573006,-49.3452448
1247,"rua prof ruy jose rache, CAJURU, Curitiba",-25.4668428,-49.19899969999999
1248,"rua pedro bonders, CIDADE INDUSTRIAL, Curitiba",-25.504151,-49.31519420000001
1249,"rua   dr  luis bettega, CAJURU, Curitiba",-25.4609672,-49.196028
1250,"rua cras iracema, CAJURU, Curitiba",-25.4613978,-49.2143582
1251,"rua  monsenhor celso, CENTRO, Curitiba",-25.4317002,-49.2704132
1252,"rua senador josé alencar, CENTRO, Curitiba",-25.4351674,-49.2754909
1253,"rua professor antonio martins franco, NOVO MUNDO, Curitiba",-25.4889028,-49.279353
1254,"rua rocha pombo, JUVEVÊ, Curitiba",-25.4140235,-49.2589216
1255,"rua tenente coronel joão antônio ramalho, JARDIM DAS AMÉRICAS, Curitiba",-25.4696808,-49.2311425
1256,"rua paissandu, SÍTIO CERCADO, Curitiba",-25.5339146,-49.27061639999999
1257,"rua filosofo huberto rohden, TABOÃO, Curitiba",-25.5402949,-49.2741023
1258,"rua chile, REBOUÇAS, Curitiba",-25.4490854,-49.2614786
1259,"rua vereador antenor pamphilo dos santos, VISTA ALEGRE, Curitiba",-25.4090925,-49.2995698
1260,"rua professora maria de assumpção, HAUER, Curitiba",-25.4832902,-49.25040310000001
1261,"rua faxinal, AUGUSTA, Curitiba",-25.4554007,-49.3756133
1262,"rua roberto faria, FANNY, Curitiba",-25.4738183,-49.2613582
1263,"rua  da divina providência, SANTA QUITÉRIA, Curitiba",-25.4600725,-49.3101744
1264,"rua dr rafael semili ribeiro, CIDADE INDUSTRIAL, Curitiba",-25.5006793,-49.3383997
1265,"rua baltazar carrasco dos reis, REBOUÇAS, Curitiba",-25.4479358,-49.2635941
1266,"rua padre karol dworaczeck, CAJURU, Curitiba",-25.4698124,-49.1947023
1267,"rua tv. alexandre gutierrez beltrao, SÍTIO CERCADO, Curitiba",-25.5385548,-49.2652461
1268,"rua joão gbur, BOA VISTA, Curitiba",-25.3812255,-49.230652
1269,"rua professor licio de lima, NOVO MUNDO, Curitiba",-25.4916536,-49.2790733
1270,"rua joão fonseca mercer, ATUBA, Curitiba",-25.3816953,-49.216989
1271,"rua guilherme de souza valente, ABRANCHES, Curitiba",-25.3676091,-49.2717061
1272,"rua marcos andreatta, MOSSUNGUÊ, Curitiba",-25.4333733,-49.3309633
1273,"rua desembargador westphalen, CENTRO, Curitiba",-25.4375022,-49.2706537
1274,"rua joão geara, PORTÃO, Curitiba",-25.4670328,-49.29138990000001
1275,"rua rosa trevisan, SANTA FELICIDADE, Curitiba",-25.3998593,-49.34372490000001
1276,"rua r. imaculada conceicao, PRADO VELHO, Curitiba",-25.4518669,-49.2511097
1277,"rua pernambuco, GUAÍRA, Curitiba",-25.4675451,-49.27328989999999
1278,"rua augusto de mari, GUAÍRA, Curitiba",-25.4682063,-49.27856509999999
1279,"rua  doutor pedro zavaski, PINHEIRINHO, Curitiba",-25.5216933,-49.2707975
1280,"rua valdomiro miguel sidral, SÍTIO CERCADO, Curitiba",-25.5554079,-49.2566594
1281,"rua david tows, SÍTIO CERCADO, Curitiba",-25.5370913,-49.256024
1282,"rua antonio parolin junior, PAROLIN, Curitiba",-25.4629562,-49.2609808
1283,"rua  joão negrão, CENTRO, Curitiba",-25.4357272,-49.26395979999999
1284,"rua silvio duarte, CIDADE INDUSTRIAL, Curitiba",-25.4969296,-49.3223519
1285,"rua  jose pedro cardoso, CAMPO DE SANTANA, Curitiba",-25.590882,-49.3323555
1286,"rua waldemar cavanha, FAZENDINHA, Curitiba",-25.4740917,-49.3293956
1287,"rua  antonio geroslau ferreira, CIDADE INDUSTRIAL, Curitiba",-25.4964458,-49.3517881
1288,"rua , quadra 5**, SÍTIO CERCADO, Curitiba",-25.5443488,-49.26656209999999
1289,"rua telêmaco da silva quadros, CIDADE INDUSTRIAL, Curitiba",-25.4865975,-49.3507212
1290,"rua felipe camarão, PRADO VELHO, Curitiba",-25.4457015,-49.2531317
1291,"rua olivia g freitas, ORLEANS, Curitiba",-25.4265938,-49.3606279
1292,"rua palmeiras, ÁGUA VERDE, Curitiba",-25.4607683,-49.2853533
1293,"rua bruno lobo, BAIRRO ALTO, Curitiba",-25.420809,-49.2062589
