,Endereco,LATITUDE,LONGITUDE
7951,"rua araçalina, BAIRRO ALTO, Curitiba",-25.4041541,-49.2143016
7952,"rua martin de abreu, JARDIM BOTÂNICO, Curitiba",-25.4467587,-49.2490231
7953,"rua elizeu santana, TATUQUARA, Curitiba",-25.5701855,-49.3191584
7954,"rua vitorio sbalqueiro, VISTA ALEGRE, Curitiba",-25.4005081,-49.3015264
7955,"rua andré ferreira camargo, XAXIM, Curitiba",-25.493109,-49.2639758
7956,"rua comendador franco, CENTRO, Curitiba",-25.4734762,-49.2283968
7957,"rua pedro abibe, CAJURU, Curitiba",-25.4740587,-49.1895372
7958,"rua estanislau kais, CAPÃO RASO, Curitiba",-25.5028245,-49.2878334
7959,"rua santa candida, SANTA CÂNDIDA, Curitiba",-25.3690362,-49.2364955
7960,"rua francisco de freitas saldanha, BOA VISTA, Curitiba",-25.3883395,-49.2491581
7961,"rua basilio fuck, XAXIM, Curitiba",-25.5129188,-49.265642
7962,"rua josé nicco, MOSSUNGUÊ, Curitiba",-25.4345697,-49.3350995
7963,"rua espedicionario francisco alves de oliveira, ALTO BOQUEIRÃO, Curitiba",-25.5388496,-49.2473529
7964,"rua engenheiro benedicto saddock de sa, ATUBA, Curitiba",-25.3734085,-49.2102484
7965,"rua adam kazimierz malisak, UBERABA, Curitiba",-25.4890823,-49.19736169999999
7966,"rua pedro viriato de souza, CAMPO COMPRIDO, Curitiba",-25.4362161,-49.3316059
7967,"rua piaui, PAROLIN, Curitiba",-25.4576167,-49.2683431
7968,"rua orlando molinari, ALTO BOQUEIRÃO, Curitiba",-25.5437637,-49.2409175
7969,"rua antonio maurilio bonato, TATUQUARA, Curitiba",-25.5691521,-49.3303602
7970,"rua maurilio antonio bonato, TATUQUARA, Curitiba",-25.5691521,-49.3303602
7971,"rua anna maurer rutz, BOA VISTA, Curitiba",-25.3830464,-49.2465994
7972,"rua tenente jose ribas kendrick, CAJURU, Curitiba",-25.4751556,-49.2030671
7973,"rua maria de souza -d. mariazinha, UBERABA, Curitiba",-25.4862667,-49.2091244
7974,"rua coronel brasilino moura, SÃO LOURENÇO, Curitiba",-25.4012995,-49.26727589999999
7975,"rua desembargador antônio de paula, XAXIM, Curitiba",-25.5177656,-49.2529881
7976,"rua birmânia, CAJURU, Curitiba",-25.4669874,-49.205026
7977,"rua lírio do vale, CAJURU, Curitiba",-25.4683697,-49.193267
7978,"rua desembargador ermelino de leão, SÃO FRANCISCO, Curitiba",-25.4290485,-49.2760802
7979,"rua joão lunardelli, CIDADE INDUSTRIAL, Curitiba",-25.548078,-49.3209166
7980,"rua ana tosin, PORTÃO, Curitiba",-25.471435,-49.3097739
7981,"rua eleonora branco gracia, TABOÃO, Curitiba",-25.3712,-49.2767592
7982,"rua josé rietmeyer, GUABIROTUBA, Curitiba",-25.4747217,-49.2393043
7983,"rua canal belem, CENTRO CÍVICO, Curitiba",-25.4854914,-49.2346413
7984,"rua luis bertoldi, TATUQUARA, Curitiba",-25.5906057,-49.33334800000001
7985,"rua deputado ladislau lachowski, VISTA ALEGRE, Curitiba",-25.4133116,-49.2935644
7986,"rua maria cavallin losso, UBERABA, Curitiba",-25.4894314,-49.1996011
7987,"rua alvecir citrorski, CIDADE INDUSTRIAL, Curitiba",-25.4506781,-49.355733
7988,"rua doutor ressalo, SANTA FELICIDADE, Curitiba",-25.4039852,-49.32869170000001
7989,"rua da ribeira br-476, SANTA CÂNDIDA, Curitiba",-25.3690362,-49.2364955
7990,"rua pretextato taborda júnior, PORTÃO, Curitiba",-25.464793,-49.31112100000001
7991,"rua fioravante dalla stella, CRISTO REI, Curitiba",-25.4333157,-49.2460567
7992,"rua lírio, ALTO BOQUEIRÃO, Curitiba",-25.5386615,-49.23278089999999
7993,"rua bartolomeu lourenco de gusmao, BOQUEIRÃO, Curitiba",-25.5002192,-49.2326838
7994,"rua joão batista zagonel passos, ALTO BOQUEIRÃO, Curitiba",-25.5215411,-49.26125740000001
7995,"rua frederico guilherme virmond, PILARZINHO, Curitiba",-25.3924182,-49.2809316
7996,"rua joliel joaquim de andrade, NOVO MUNDO, Curitiba",-25.4885964,-49.3018219
7997,"rua ary de souza, BOQUEIRÃO, Curitiba",-25.5030083,-49.2367172
7998,"rua maria de lurdes gasparin pianowski, CIDADE INDUSTRIAL, Curitiba",-25.4808762,-49.3044253
7999,"rua men de sá, GUAÍRA, Curitiba",-25.4757215,-49.2717952
8000,"rua padre agostinho, SÃO BRAZ, Curitiba",-25.4295828,-49.294537
8001,"rua andré ferreira de camargo, XAXIM, Curitiba",-25.493109,-49.2639758
8002,"rua arthur hipólito bisse, FAZENDINHA, Curitiba",-25.4736611,-49.3367667
8003,"rua professor mazaroto, CAPÃO RASO, Curitiba",-25.4995498,-49.2920526
8004,"rua doutor gonzaga de campos, UBERABA, Curitiba",-25.4770756,-49.2340347
8005,"rua mounif tacla, AHÚ, Curitiba",-25.396874,-49.2621116
8006,"rua jorge brey, ALTO BOQUEIRÃO, Curitiba",-25.5209125,-49.2534171
8007,"rua edgard roquete pinto, BIGORRILHO, Curitiba",-25.4360864,-49.2960718
8008,"rua carlos gelenski, SÃO JOÃO, Curitiba",-25.3978372,-49.3067244
8009,"rua stellamaris da silva rocha mello, CIDADE INDUSTRIAL, Curitiba",-25.507206,-49.3224266
8010,"rua planalto, SÍTIO CERCADO, Curitiba",-25.5332621,-49.2695471
8011,"rua carlos estrella moreira, PILARZINHO, Curitiba",-25.3983368,-49.2966018
8012,"rua professor algacyr munhoz mader, NOVO MUNDO, Curitiba",-25.4942165,-49.3157194
8013,"rua do ganchinho - le, GANCHINHO, Curitiba",-25.578678,-49.2661459
8014,"rua rod. do cafe, SANTO INÁCIO, Curitiba",-25.430745,-49.3307975
8015,"rua antonio grade, MERCÊS, Curitiba",-25.4097733,-49.2903008
8016,"rua vinte e cinco de abril, ALTO DA GLÓRIA, Curitiba",-25.3917726,-49.2983031
8017,"rua dos papagaios, NOVO MUNDO, Curitiba",-25.4938082,-49.2857896
8018,"rua flávio dallegrave, BACACHERI, Curitiba",-25.4095768,-49.2420211
8019,"rua francisco de souza netto, PORTÃO, Curitiba",-25.4799896,-49.30583660000001
8020,"rua carlos de laet, ALTO BOQUEIRÃO, Curitiba",-25.4962022,-49.2360925
8021,"rua rua philipinas, CAJURU, Curitiba",-25.4666032,-49.2093374
8022,"rua angelina ançai, FAZENDINHA, Curitiba",-25.4797031,-49.3216957
8023,"rua iracena gonçalves carvalho, CAMPO DE SANTANA, Curitiba",-25.5902959,-49.3378805
8025,"rua são salvador, SÃO LOURENÇO, Curitiba",-12.977749,-38.5016301
8026,"rua josé álvaro tizzot, SÍTIO CERCADO, Curitiba",-25.557194,-49.2559586
8027,"rua rio passo do franca, TATUQUARA, Curitiba",-25.5426366,-49.2998014
8028,"rua joao fonseca mercer, ATUBA, Curitiba",-25.3816953,-49.216989
8029,"rua ferdinando darif, CAMPINA DO SIQUEIRA, Curitiba",-25.4394176,-49.3057174
8030,"rua joao dembinski, CIDADE INDUSTRIAL, Curitiba",-25.4632912,-49.3455793
8031,"rua francisco favaro, SANTA CÂNDIDA, Curitiba",-25.368779,-49.2431959
8032,"rua br-476, FANNY, Curitiba",-25.4854437,-49.2675764
8033,"rua raul vaz, CAJURU, Curitiba",-25.4657174,-49.1958677
8034,"rua rolf faria gugisch, PILARZINHO, Curitiba",-25.391828,-49.27960390000001
8035,"rua ângela budel, BUTIATUVINHA, Curitiba",-25.3971623,-49.3521152
8036,"rua cacilda dos santos canfeld, CIDADE INDUSTRIAL, Curitiba",-25.4985912,-49.3473219
8037,"rua heitor josé da costa ribas, CIDADE INDUSTRIAL, Curitiba",-25.5157212,-49.3286155
8038,"rua da divina providência, PORTÃO, Curitiba",-25.4602485,-49.3107712
8039,"rua maria gusso sforza, PINHEIRINHO, Curitiba",-25.3800784,-49.30057350000001
8040,"rua edson roberto oliveira, UBERABA, Curitiba",-25.4920296,-49.2054723
8041,"rua luciano helena, SANTA FELICIDADE, Curitiba",-25.4409878,-49.31577739999999
8042,"rua joão sebastião bunik, TINGUI, Curitiba",-25.3901614,-49.2163616
8043,"rua andréa guimarães, CIDADE INDUSTRIAL, Curitiba",-25.5002354,-49.3379466
8044,"rua eduardo afonso portes, SÍTIO CERCADO, Curitiba",-25.5160557,-49.27127309999999
8045,"rua antonio augusto fiorenzano, SANTA FELICIDADE, Curitiba",-25.3743431,-49.3273017
8046,"rua alípio davi, NOVO MUNDO, Curitiba",-25.4939056,-49.3001576
8047,"rua pc. 29 de marco, CAJURU, Curitiba",-25.4282598,-49.2857025
8048,"rua elias toufic mansur, ATUBA, Curitiba",-25.3692134,-49.20897979999999
8049,"rua joão enéas de sá, PILARZINHO, Curitiba",-25.3881853,-49.2718453
8050,"rua zumbi, SANTA CÂNDIDA, Curitiba",-25.367313,-49.2119702
8051,"rua ludovico lucca, SANTA FELICIDADE, Curitiba",-25.416113,-49.3537505
8052,"rua eugenio contin, CAJURU, Curitiba",-25.4463006,-49.2126734
8053,"rua jose lopes dos santos, SANTO INÁCIO, Curitiba",-25.4265954,-49.3448636
8054,"rua antonio bartapeli, SANTA FELICIDADE, Curitiba",-25.3966747,-49.3299003
8055,"rua engenheiro oswaldo siqueira, TABOÃO, Curitiba",-25.3718399,-49.2781746
8056,"rua joão batista meneguette, CIDADE INDUSTRIAL, Curitiba",-25.3547256,-49.274128
8057,"rua regina schulman, BOQUEIRÃO, Curitiba",-25.5128385,-49.236769
8058,"rua afonso botelho, ÁGUA VERDE, Curitiba",-25.4468234,-49.2748601
8059,"rua severino gonçalves, ALTO BOQUEIRÃO, Curitiba",-25.5296736,-49.2465565
8060,"rua capiberibe, SANTA QUITÉRIA, Curitiba",-25.4636878,-49.3036363
8061,"rua coronel domingues soares, BAIRRO ALTO, Curitiba",-25.421922,-49.2069845
8062,"rua ernesto luiz pellanda, CAJURU, Curitiba",-25.5838495,-49.2613468
8063,"rua alberto torres, FAZENDINHA, Curitiba",-25.480975,-49.3242387
8064,"rua ivo pereira de carvalho, UBERABA, Curitiba",-25.4765129,-49.222586
8065,"rua gilney carneiro leal, ALTO BOQUEIRÃO, Curitiba",-25.5260157,-49.23346069999999
8066,"rua carlos mikos, UBERABA, Curitiba",-25.4870713,-49.20957019999999
8067,"rua indaiá, BAIRRO ALTO, Curitiba",-25.4053207,-49.21614779999999
8068,"rua general francisco lima e silva, SÃO FRANCISCO, Curitiba",-25.4289541,-49.267137
8069,"rua antonio krainiski, ABRANCHES, Curitiba",-25.3845618,-49.27426029999999
8070,"rua emilia chopacz, CIDADE INDUSTRIAL, Curitiba",-25.4526673,-49.3524588
8071,"rua joao bage, CAMPO COMPRIDO, Curitiba",-25.4525602,-49.3331184
8072,"rua howell lewis fry, CACHOEIRA, Curitiba",-25.3506626,-49.2513055
8073,"rua ribeiralta, SANTA CÂNDIDA, Curitiba",-25.4046398,-49.2237207
8074,"rua 8 de maio- dia da vitória, ALTO BOQUEIRÃO, Curitiba",-25.5405246,-49.2424069
8075,"rua pedro calisto, GANCHINHO, Curitiba",-25.5961151,-49.2756817
8076,"rua padre arnaldo janssen, CAJURU, Curitiba",-25.4725791,-49.1946148
8077,"rua pedro rodrigo de lima, SÍTIO CERCADO, Curitiba",-25.53246,-49.27785000000001
8078,"rua buruti, UBERABA, Curitiba",-25.4909661,-49.2100292
8079,"rua damião alberti nabosne, CAMPO DE SANTANA, Curitiba",-25.5862748,-49.3422257
8080,"rua padre joão salanczyk, UBERABA, Curitiba",-25.4895408,-49.2037051
8081,"rua roberto menghini, CIDADE INDUSTRIAL, Curitiba",-25.5176117,-49.329606
8082,"rua doutor armando fajardo, CAPÃO RASO, Curitiba",-25.4988929,-49.2843962
8083,"rua josé scuissiato, SEMINÁRIO, Curitiba",-25.4454235,-49.3065182
8084,"rua 8 de maio dia da vitoria, ALTO BOQUEIRÃO, Curitiba",-25.5405246,-49.2424069
8085,"rua doutor jose alexandre de moura negrini, UBERABA, Curitiba",-25.4767946,-49.1966924
8086,"rua almirante tamandare, ALTO DA RUA XV, Curitiba",-25.4281643,-49.25529299999999
8087,"rua jorge gava, BOA VISTA, Curitiba",-25.3872871,-49.2927827
8088,"rua otavio bressan, SANTA FELICIDADE, Curitiba",-25.4037218,-49.3148183
8089,"rua santa rita durão, SÃO LOURENÇO, Curitiba",-25.3882999,-49.2637654
8090,"rua hussen ibrain omairy, SÍTIO CERCADO, Curitiba",-25.5536787,-49.259569
8091,"rua da pedreira (sao braz), SÃO BRAZ, Curitiba",-25.4178345,-49.3722471
8092,"rua izaltino dias ferraz, CIDADE INDUSTRIAL, Curitiba",-25.4551128,-49.3579883
8093,"rua isaias fernandes, TATUQUARA, Curitiba",-25.5778436,-49.3248441
8094,"rua altevir luis dalagassa, CAMPO DE SANTANA, Curitiba",-25.5926743,-49.34573349999999
8095,"rua dos palmenses, SÃO MIGUEL, Curitiba",-25.5046628,-49.357444
8096,"rua alfred nobel, CIDADE INDUSTRIAL, Curitiba",-25.5196548,-49.332139
8097,"rua av. presidente wenceslau braz, PAROLIN, Curitiba",-25.4741397,-49.272507
8098,"rua doutor jose alexandre de moura negrini, CAJURU, Curitiba",-25.4767946,-49.1966924
8099,"rua general teodorico guimaraes, FANNY, Curitiba",-25.4768736,-49.2638458
8100,"rua general teodorico guimarães, FANNY, Curitiba",-25.4768736,-49.2638458
8101,"rua basilio bacelar filho, TINGUI, Curitiba",-25.3833124,-49.2243502
8102,"rua sidnei strafite de oliveira, SÃO BRAZ, Curitiba",-25.4193631,-49.3591523
8103,"rua plínio barroso de castro, JARDIM BOTÂNICO, Curitiba",-25.4488235,-49.2481422
8104,"rua josé pires da silva, BUTIATUVINHA, Curitiba",-25.5904094,-49.3274453
8105,"rua joão francisco antunes, CIDADE INDUSTRIAL, Curitiba",-25.5473565,-49.339374
8106,"rua rio xingú, BAIRRO ALTO, Curitiba",-25.4028886,-49.2015362
8107,"rua dona saza lattes, JARDIM DAS AMÉRICAS, Curitiba",-25.4723908,-49.2230678
8108,"rua victorio vizinoni, CAPÃO DA IMBUIA, Curitiba",-25.4329293,-49.2182298
8109,"rua doutor jose guilherme loyola, CIDADE INDUSTRIAL, Curitiba",-25.479125,-49.3463095
8110,"rua ary claudino ziemer, PINHEIRINHO, Curitiba",-25.5275349,-49.2955292
8111,"rua affonso jorge von trompowski, SÍTIO CERCADO, Curitiba",-25.5275886,-49.2644325
8112,"rua joão batista rossato belinazo, CAMPO COMPRIDO, Curitiba",-25.441266,-49.3592631
8113,"rua getulio silveira, CAMPO COMPRIDO, Curitiba",-25.4639709,-49.35362300000001
8114,"rua capitão orlando favorito, CAJURU, Curitiba",-25.4469014,-49.2137399
8115,"rua doutor augusto cantergiani, PINHEIRINHO, Curitiba",-25.5220965,-49.2787416
8116,"rua francisco caron, PILARZINHO, Curitiba",-25.3934153,-49.2782083
8117,"rua idalina de carvalho lima, PILARZINHO, Curitiba",-25.3935109,-49.29777840000001
8118,"rua general adalberto massa, GANCHINHO, Curitiba",-25.5516959,-49.2461879
8119,"rua dolores da silva, ALTO BOQUEIRÃO, Curitiba",-25.5286057,-49.2457771
8120,"rua cidade de itapetininga, AUGUSTA, Curitiba",-25.4908448,-49.3577782
8121,"rua pianista luis thomaszeck, VISTA ALEGRE, Curitiba",-25.4078304,-49.2841134
8122,"rua milton machado, UBERABA, Curitiba",-25.4846753,-49.1950683
8123,"rua antonio de lima castro, PORTÃO, Curitiba",-25.4710103,-49.3105193
8124,"rua av. fredolin wolf, SANTA CÂNDIDA, Curitiba",-25.3847796,-49.3090743
8125,"rua antonio giovanni bertoldi, CAMPO DE SANTANA, Curitiba",-25.58896,-49.3350285
8126,"rua josé gusso, FAZENDINHA, Curitiba",-25.4810754,-49.3128204
8127,"rua andré ferreira barbosa, HAUER, Curitiba",-25.5137752,-49.2942839
8128,"rua joão tschannerl, PILARZINHO, Curitiba",-25.4027762,-49.28837739999999
8129,"rua jose nicco, MOSSUNGUÊ, Curitiba",-25.4345697,-49.3350995
8130,"rua luiz gonzaga junior gonzaguinha, SÍTIO CERCADO, Curitiba",-25.5547817,-49.2649465
8131,"rua águas do passaúna, CIDADE INDUSTRIAL, Curitiba",-25.5019116,-49.3541343
8132,"rua alberto massuda, XAXIM, Curitiba",-25.4234177,-49.2743394
8133,"rua francisco torres, ALTO DA GLÓRIA, Curitiba",-25.4316262,-49.2610171
8134,"rua coronel menna barreto monclaro, BATEL, Curitiba",-25.4377039,-49.2795594
8135,"rua joão ferreira, TATUQUARA, Curitiba",-25.5647384,-49.3282697
8136,"rua general aristides athayde junior, BIGORRILHO, Curitiba",-25.4319426,-49.2976153
8137,"rua dimas arceno, TATUQUARA, Curitiba",-25.5799667,-49.3320127
8138,"rua das araras, NOVO MUNDO, Curitiba",-25.4942359,-49.2851575
8139,"rua egon cesar fabri, AUGUSTA, Curitiba",-25.4754358,-49.3603724
8140,"rua justo manfron, BAIRRO NAO INFORMADO, Curitiba",-25.3691298,-49.32389999999999
8141,"rua moradias jandaia, SÍTIO CERCADO, Curitiba",-25.5542486,-49.2540622
8142,"rua bruno bertold ( campo de santana), TATUQUARA, Curitiba",-25.5897066,-49.3347329
8143,"rua santo antônio, PRADO VELHO, Curitiba",-25.4491954,-49.2617542
8144,"rua deputado ulisses guimarães, PINHEIRINHO, Curitiba",-25.5320185,-49.282869
8145,"rua neide darif palhano, SANTA FELICIDADE, Curitiba",-25.4396006,-49.3190361
8146,"rua paraguassu, CENTRO, Curitiba",-25.4170966,-49.2551412
8147,"rua izabela veiga kulcheski, CIDADE INDUSTRIAL, Curitiba",-25.5401484,-49.3370128
8148,"rua vinicius jose borio junior (campo de santana), CAMPO DE SANTANA, Curitiba",-25.5965413,-49.3354238
8149,"rua arnald ferreira veloso, CIDADE INDUSTRIAL, Curitiba",-25.4830201,-49.3521545
8150,"rua coronel adyr guimarães, ÁGUA VERDE, Curitiba",-25.3954355,-49.2610323
8151,"rua av brasilia, GUAÍRA, Curitiba",-25.4946247,-49.28422699999999
8152,"rua gilney carneiro leal, BOQUEIRÃO, Curitiba",-25.5260157,-49.23346069999999
8153,"rua sociólogo gilberto freyre, SANTA FELICIDADE, Curitiba",-25.3850855,-49.3357733
8154,"rua francisco dzikowicz, PINHEIRINHO, Curitiba",-25.5335314,-49.2853842
8155,"rua tereza slondo, CIDADE INDUSTRIAL, Curitiba",-25.4808762,-49.3044253
8156,"rua gerda thereza metzentin, CIDADE INDUSTRIAL, Curitiba",-25.4842643,-49.2989893
8157,"rua profa terezita faria dos santos lima, PILARZINHO, Curitiba",-25.393793,-49.2863291
8158,"rua simão bolívar, JUVEVÊ, Curitiba",-25.419544,-49.2535373
8159,"rua deputado sinval martins de araujo (ganchinho), GANCHINHO, Curitiba",-25.5528004,-49.2463029
8160,"rua maria lúcia locher de athayde, FAZENDINHA, Curitiba",-25.4928822,-49.3528982
8161,"rua raul de azevedo macedo, XAXIM, Curitiba",-25.5050026,-49.2670027
8162,"rua manoel eufrásio, CABRAL, Curitiba",-25.4102007,-49.2604901
8163,"rua travessa josefina vargas, SÍTIO CERCADO, Curitiba",-25.5443488,-49.26656209999999
8164,"rua maria leonardi caiado, CIDADE INDUSTRIAL, Curitiba",-25.4919495,-49.3403564
8165,"rua lucia dechandt, BARREIRINHA, Curitiba",-25.3660905,-49.2655693
8166,"rua francisco cochinski, SÍTIO CERCADO, Curitiba",-25.5404763,-49.2529031
8167,"rua aracalina, BAIRRO ALTO, Curitiba",-25.4041541,-49.2143016
8168,"rua saldanha marinho, CAMPINA DO SIQUEIRA, Curitiba",-25.4404685,-49.3023229
8169,"rua anacleto cardoso do amaral, SÍTIO CERCADO, Curitiba",-25.555793,-49.2476593
8170,"rua lídia geraldi bertoldi, TATUQUARA, Curitiba",-25.5909074,-49.3361114
8171,"rua governador agamenon magalhaes, CAPÃO DA IMBUIA, Curitiba",-25.4353221,-49.2282271
8172,"rua francisco klemtz, NOVO MUNDO, Curitiba",-25.4690885,-49.3030291
8173,"rua luciano hella, CAMPINA DO SIQUEIRA, Curitiba",-25.4409878,-49.31577739999999
8174,"rua da república, NOVO MUNDO, Curitiba",-25.4890253,-49.2941253
8175,"rua tenente manoel gomes de britto, BOQUEIRÃO, Curitiba",-25.3689254,-49.2511528
8176,"rua emilio romani, CRISTO REI, Curitiba",-25.538067,-49.3281244
8177,"rua cap. antônio f.  naufal, UBERABA, Curitiba",-25.4963884,-49.2192976
8178,"rua caravelas, CAMPO COMPRIDO, Curitiba",-25.4738454,-49.3325951
8179,"rua joao chaves, XAXIM, Curitiba",-25.5046888,-49.27727789999999
8180,"rua santa clara, TATUQUARA, Curitiba",-25.3976479,-49.259709
8181,"rua viviany cristina wanto, PORTÃO, Curitiba",-25.4720377,-49.31525930000001
8182,"rua adao sobocinski, CRISTO REI, Curitiba",-25.4352918,-49.2377197
8183,"rua rodolfo de mattia, ALTO BOQUEIRÃO, Curitiba",-25.5312998,-49.2521877
8184,"rua doutor carlos de carvalho, SÃO BRAZ, Curitiba",-25.436541,-49.2888678
8185,"rua marcos luiz trevisan, CIDADE INDUSTRIAL, Curitiba",-25.4994224,-49.3497762
8186,"rua nelsom rieke, CIDADE INDUSTRIAL, Curitiba",-25.5008281,-49.3445748
8187,"rua joão antunes, CAMPO COMPRIDO, Curitiba",-25.4644433,-49.3442046
8188,"rua eugenio parolin, PAROLIN, Curitiba",-25.460752,-49.258765
8189,"rua joao de paula cordeiro filho, NOVO MUNDO, Curitiba",-25.4917533,-49.3111401
8190,"rua sander roberto da cunha, CAPÃO RASO, Curitiba",-25.5115258,-49.291917
8191,"rua josé tissi, CIDADE INDUSTRIAL, Curitiba",-25.4359992,-49.35024540000001
8192,"rua marcos antonio malucelli, FAZENDINHA, Curitiba",-25.4886261,-49.3504802
8193,"rua claro s de lacerda, CAJURU, Curitiba",-25.4487585,-49.2193644
8194,"rua oswaldo cruz, CENTRO, Curitiba",-25.4406645,-49.27664009999999
8195,"rua darci scotti, TATUQUARA, Curitiba",-25.5521046,-49.2944937
8196,"rua emilio teles de lima (campo de santana), BUTIATUVINHA, Curitiba",-25.5915743,-49.342568
8197,"rua jose kaminski, NOVO MUNDO, Curitiba",-25.4900484,-49.3120516
8198,"rua leonardo wesolowski, CAMPO COMPRIDO, Curitiba",-25.4592869,-49.3334281
8199,"rua andre de barros, CAJURU, Curitiba",-25.4347863,-49.26866709999999
8200,"rua profa maria da glória saldanha loyola, UBERABA, Curitiba",-25.4715019,-49.2145375
8201,"rua heinz pechner, SANTA FELICIDADE, Curitiba",-25.4362438,-49.3607969
8202,"rua general julião müller neiva de lima, SÍTIO CERCADO, Curitiba",-25.5526927,-49.2622653
8203,"rua jair do nascimento cesar, SANTA CÂNDIDA, Curitiba",-25.365186,-49.217659
8204,"rua celso pio gouveia, CIDADE INDUSTRIAL, Curitiba",-25.4986501,-49.34931419999999
8205,"rua celina posselt mansur, NOVO MUNDO, Curitiba",-25.4846332,-49.3061757
8206,"rua ana kotovei, UMBARÁ, Curitiba",-25.5550398,-49.2849543
8207,"rua augusto ricciardella correia, SANTO INÁCIO, Curitiba",-25.4242699,-49.3238826
8208,"rua canal belem, BOQUEIRÃO, Curitiba",-25.494569,-49.2267348
8209,"rua dr sérgio francisco de souza de castro, UBERABA, Curitiba",-25.4913517,-49.2258706
8210,"rua rio do sul, FAZENDINHA, Curitiba",-25.4742193,-49.3364589
8211,"rua canal belém, TATUQUARA, Curitiba",-25.4854914,-49.2346413
8212,"rua av. candido hartmann, SANTO INÁCIO, Curitiba",-25.4228114,-49.31544419999999
8213,"rua doutor manoel abilhoa, UMBARÁ, Curitiba",-25.5556509,-49.2839995
8214,"rua carlota straube de araújo, SANTA CÂNDIDA, Curitiba",-25.3876684,-49.2505453
8215,"rua abatiá, SÍTIO CERCADO, Curitiba",-25.5391995,-49.2925391
8216,"rua graciosa, ATUBA, Curitiba",-25.3914498,-49.15995299999999
8217,"rua edivino antonio de bonni, FAZENDINHA, Curitiba",-25.4834077,-49.32137549999999
8218,"rua valdir mazzuco, SÍTIO CERCADO, Curitiba",-25.530635,-49.2689667
8219,"rua joao scandelari, BARREIRINHA, Curitiba",-25.3731304,-49.2569934
8220,"rua francisco novicki, SÍTIO CERCADO, Curitiba",-25.5427269,-49.2910149
8221,"rua jornalista pedro viana, CIDADE INDUSTRIAL, Curitiba",-25.4855987,-49.3376974
8222,"rua icaraí, CAJURU, Curitiba",-25.461352,-49.2089687
8223,"rua pery sotto maior bittencourt, ATUBA, Curitiba",-25.3847589,-49.2119967
8224,"rua coronel jose luiz dos santos, BOQUEIRÃO, Curitiba",-25.4980576,-49.2461272
8225,"rua deputado acyr jose, UBERABA, Curitiba",-25.4731887,-49.2003042
8226,"rua jose becker davet, SANTA CÂNDIDA, Curitiba",-25.3700651,-49.2126459
8227,"rua everton ribeiro dos santos, ABRANCHES, Curitiba",-25.3590302,-49.27690699999999
8228,"rua torres, UMBARÁ, Curitiba",-25.560004,-49.283783
8229,"rua lupianópolis, UBERABA, Curitiba",-25.5452172,-49.2678545
8230,"rua benedito correia de freitas, SÃO LOURENÇO, Curitiba",-25.3810494,-49.2752421
8231,"rua nely conceicao liss, BARREIRINHA, Curitiba",-25.375631,-49.2621962
8232,"rua germania, CAJURU, Curitiba",-25.444356,-49.217676
8233,"rua jorge gazal, AUGUSTA, Curitiba",-25.463622,-49.3537933
8234,"rua eduardo pinto da rocha, BAIRRO ALTO, Curitiba",-25.55888,-49.2604464
8235,"rua amauri lange silverio, SÍTIO CERCADO, Curitiba",-25.3902514,-49.2837433
8236,"rua governador agamenon magalhães, CAPÃO DA IMBUIA, Curitiba",-25.4353221,-49.2282271
8237,"rua joao reffo, SANTA FELICIDADE, Curitiba",-25.3848535,-49.3349102
8238,"rua br-476, PRADO VELHO, Curitiba",-25.4566425,-49.25729490000001
8239,"rua pedro aloys scherer, UBERABA, Curitiba",-25.4974964,-49.2176209
8240,"rua josé teixeira de mello, FAZENDINHA, Curitiba",-25.4858249,-49.3260841
8241,"rua benedito correia de freitas, ABRANCHES, Curitiba",-25.3810494,-49.2752421
8242,"rua victor burda, MERCÊS, Curitiba",-25.4184904,-49.2967284
8243,"rua jaziel sotto maior lagos, CAMPO COMPRIDO, Curitiba",-25.4574812,-49.3432951
8244,"rua doutor durval pinto cordeiro, SÃO BRAZ, Curitiba",-25.4151176,-49.3570082
8245,"rua josé antonio leprevost, BOA VISTA, Curitiba",-25.3781413,-49.229914
8246,"rua bispo dom jerônimo mazzarotto, CAMPO DE SANTANA, Curitiba",-25.5936783,-49.3385373
8247,"rua patrício bagolin, ORLEANS, Curitiba",-25.4359113,-49.3626611
8248,"rua jorge antonio heil, TABOÃO, Curitiba",-25.3679814,-49.280712
8249,"rua manoel aranha, ABRANCHES, Curitiba",-25.3667519,-49.2723557
8250,"rua maria carmelina nenon, BOA VISTA, Curitiba",-25.3836902,-49.2475022
8251,"rua sem identificação, TATUQUARA, Curitiba",-25.5647384,-49.3282697
8252,"rua claudio chatagnier, BACACHERI, Curitiba",-25.4108765,-49.227496
8253,"rua tibagi, REBOUÇAS, Curitiba",-25.436204,-49.2610326
8254,"rua gastão de abreu pires, CAMPO COMPRIDO, Curitiba",-25.4544125,-49.3549666
8255,"rua coronel pedro scherer sobrinho, CRISTO REI, Curitiba",-25.4359731,-49.2399987
8256,"rua antonio greca, SÃO LOURENÇO, Curitiba",-25.3955367,-49.2635065
8257,"rua mário chaubald biscaia, NOVO MUNDO, Curitiba",-25.4920205,-49.2968365
8258,"rua gumercindo marés, VISTA ALEGRE, Curitiba",-25.4097572,-49.2857821
8259,"rua osmar de lima, CAPÃO DA IMBUIA, Curitiba",-12.0463731,-77.042754
8260,"rua osmario de lima, CAPÃO DA IMBUIA, Curitiba",-25.4373396,-49.21110299999999
8261,"rua cidade de ituporanga, SÍTIO CERCADO, Curitiba",-25.5341112,-49.2591417
8262,"rua adolfo pikussa, UBERABA, Curitiba",-25.4818979,-49.2260168
8263,"rua syrth requiao pereira, UBERABA, Curitiba",-25.4827801,-49.2259848
8264,"rua thomas edison, REBOUÇAS, Curitiba",-25.4434404,-49.2678767
8265,"rua osvaldo filippetto, BUTIATUVINHA, Curitiba",-25.3894771,-49.33928419999999
8266,"rua vereador aurelino mader gonçalves, XAXIM, Curitiba",-25.5179994,-49.2665851
8267,"rua josé tissi, CAMPO COMPRIDO, Curitiba",-25.4359992,-49.35024540000001
8268,"rua cirineu de morais, ATUBA, Curitiba",-25.3887831,-49.20517110000001
8269,"rua david abrão, SANTO INÁCIO, Curitiba",-25.4299084,-49.3054604
8270,"rua jose elezeu riberio(abranches), BOA VISTA, Curitiba",-25.3542088,-49.2722487
8271,"rua gerhard heinrichs, XAXIM, Curitiba",-25.5207901,-49.266443
8272,"rua rozalina colodel durigan, SANTA FELICIDADE, Curitiba",-25.3995492,-49.331894
8273,"rua um, UBERABA, Curitiba",-25.4858632,-49.2193668
8274,"rua emilio romani, CAPÃO DA IMBUIA, Curitiba",-25.538067,-49.3281244
8275,"rua gastão natal simone, CIDADE INDUSTRIAL, Curitiba",-25.5153245,-49.3290281
8276,"rua josé luvizotti, CIDADE INDUSTRIAL, Curitiba",-25.440577,-49.35928759999999
8277,"rua r 7, SÍTIO CERCADO, Curitiba",-25.53543,-49.2546741
8278,"rua santa bernadethe, GUAÍRA, Curitiba",-25.4799353,-49.2775799
8279,"rua coronel joão cândido muricy, ABRANCHES, Curitiba",-25.3865744,-49.2686284
8280,"rua nicolau bogdano bajaluk, TATUQUARA, Curitiba",-25.5837173,-49.3404706
8281,"rua carolina wozniak, CAJURU, Curitiba",-25.565114,-49.28115769999999
8282,"rua santo celestino coleto, BOQUEIRÃO, Curitiba",-25.3855119,-49.2518267
8283,"rua portugal, ALTO DA GLÓRIA, Curitiba",-25.4231864,-49.2773948
8284,"rua ismael rocha cordeiro, ALTO BOQUEIRÃO, Curitiba",-25.5430605,-49.2447807
8285,"rua ildefonso correia de serro azul, JARDIM BOTÂNICO, Curitiba",-21.3108315,-47.56385700000001
8286,"rua jacy loureiro de campos, CENTRO, Curitiba",-25.4152111,-49.2701336
8287,"rua gibran khalil gibran, CENTRO, Curitiba",-25.4233333,-49.2681669
8288,"rua palmiro tridelario bertoldi, TATUQUARA, Curitiba",-25.5829903,-49.33748139999999
8289,"rua da constituição, PINHEIRINHO, Curitiba",-25.5222528,-49.3007578
8290,"rua antonio augusto de brito, SÍTIO CERCADO, Curitiba",-25.5565737,-49.2799409
8291,"rua eisten, BOA VISTA, Curitiba",46.19739999999999,7.895079999999998
8292,"rua guamirim, BAIRRO ALTO, Curitiba",-25.4047577,-49.2166702
8293,"rua dr jose daniel van der brooke filho, UMBARÁ, Curitiba",-25.5588388,-49.2844403
8294,"rua joão valle, SANTA FELICIDADE, Curitiba",-25.3969492,-49.3244245
8295,"rua estrada velha do santa cândida., SANTA CÂNDIDA, Curitiba",-25.3690362,-49.2364955
8296,"rua pinhalão, SÍTIO CERCADO, Curitiba",-25.5517525,-49.2747555
8297,"rua mustaphá kaiel, GUABIROTUBA, Curitiba",-25.4723285,-49.2431129
8298,"rua antonio arquizes, TATUQUARA, Curitiba",-25.5555825,-49.3306662
8299,"rua euclides bandeira, CENTRO, Curitiba",-25.4111463,-49.2703266
8300,"rua coronel napoleão marcondes frança, HUGO LANGE, Curitiba",-25.4205352,-49.2405798
8301,"rua alberto manoel glaser, TINGUI, Curitiba",-25.3929446,-49.2109193
8302,"rua aurélio buarque de holanda, SANTA FELICIDADE, Curitiba",-25.3919804,-49.3551261
8303,"rua antonia molina bella, SANTA FELICIDADE, Curitiba",-25.528565,-49.3339195
8304,"rua francisco scremin, AHÚ, Curitiba",-25.403376,-49.2690209
8305,"rua presidente faria, TATUQUARA, Curitiba",-25.4273866,-49.2685354
8306,"rua república do líbano, JARDIM SOCIAL, Curitiba",-25.4207386,-49.22980219999999
8307,"rua miguel tatarin, UBERABA, Curitiba",-25.4953096,-49.20121020000001
8308,"rua bortolo gava, PILARZINHO, Curitiba",-25.3954435,-49.280224
8309,"rua adhmar vieira de araujo, UBERABA, Curitiba",-25.4888889,-49.2042841
8310,"rua joannita westphalen corrêa, CIDADE INDUSTRIAL, Curitiba",-25.4992753,-49.3472962
8311,"rua soldado gregório kislek, ALTO BOQUEIRÃO, Curitiba",-25.5305191,-49.2502609
8312,"rua calendula, SANTA FELICIDADE, Curitiba",-25.4039852,-49.32869170000001
8313,"rua edy helena schutze, BARREIRINHA, Curitiba",-25.3699813,-49.254771
8314,"rua dom josé marello, XAXIM, Curitiba",-25.4971408,-49.2643102
8315,"rua major heitor guimarães, BATEL, Curitiba",-25.441078,-49.3084858
8316,"rua antonio joão ziliotto, CAMPINA DO SIQUEIRA, Curitiba",-25.4397045,-49.3170383
8317,"rua da mina do ouro, SANTA FELICIDADE, Curitiba",-25.4259918,-49.3386383
8318,"rua major heitor guimarães, CAMPO COMPRIDO, Curitiba",-25.441078,-49.3084858
8319,"rua luiz baltaca, CIDADE INDUSTRIAL, Curitiba",-25.463106,-49.3492714
8320,"rua são josé, CAJURU, Curitiba",-25.5430988,-49.2622851
8321,"rua hayton da silva pereira, TARUMÃ, Curitiba",-25.4339264,-49.2133835
8322,"rua joão das graças quirino, SÍTIO CERCADO, Curitiba",-25.5420819,-49.2711754
8323,"rua br cento e dezesseis, PRADO VELHO, Curitiba",-25.4523008,-49.239678
8324,"rua andre ferreira camargo, XAXIM, Curitiba",-25.493109,-49.2639758
8325,"rua josé soares grobe, SÍTIO CERCADO, Curitiba",-25.5482882,-49.2720455
8326,"rua luis machuca, ALTO BOQUEIRÃO, Curitiba",-25.5340354,-49.2348535
8327,"rua deputado sinval martins araújo, GANCHINHO, Curitiba",-25.5528004,-49.2463029
8328,"rua tenente coronel arlindo cândido molina, CAMPO DE SANTANA, Curitiba",-25.586978,-49.3208383
8329,"rua do expedicionário, CENTRO, Curitiba",-25.4286374,-49.258467
8330,"rua roberto lobo, GUABIROTUBA, Curitiba",-25.4729054,-49.2408733
8331,"rua camilo haj mussi, SANTA CÂNDIDA, Curitiba",-25.3726641,-49.2356461
8332,"rua rod. curitiba rio branco pr-092, TABOÃO, Curitiba",-25.3739162,-49.2740221
8333,"rua breno trautwein, CIDADE INDUSTRIAL, Curitiba",-25.459143,-49.3465688
8334,"rua fernando simas, BIGORRILHO, Curitiba",-25.4280028,-49.29049939999999
8335,"rua republica islamica do ira, JARDIM DAS AMÉRICAS, Curitiba",-25.466455,-49.2171386
8336,"rua salin calisto, SÍTIO CERCADO, Curitiba",-25.5862508,-49.2853845
8337,"rua alvin tiboni, CIDADE INDUSTRIAL, Curitiba",-25.5277279,-49.33579530000001
8338,"rua francisco kleichevicz, PORTÃO, Curitiba",-25.4289098,-49.3471297
8339,"rua carlos chagas maia, CIDADE INDUSTRIAL, Curitiba",-25.4948585,-49.3317483
8340,"rua brigadeiro franco, PORTÃO, Curitiba",-25.444374,-49.27512189999999
8341,"rua guaçui, SÍTIO CERCADO, Curitiba",-25.5530521,-49.2502097
8342,"rua iracema gonsalves carvalho, CAMPO DE SANTANA, Curitiba",-25.5902959,-49.3378805
8343,"rua pedro caetano m folador, PORTÃO, Curitiba",-25.470653,-49.3111049
8344,"rua paulino stedile, SANTA FELICIDADE, Curitiba",-25.39308,-49.357181
8345,"rua miguel rossetim, GANCHINHO, Curitiba",-25.552558,-49.2458272
8346,"rua ladislau schultz, ORLEANS, Curitiba",-25.4346579,-49.34916200000001
8347,"rua antonio pavelski, CIDADE INDUSTRIAL, Curitiba",-25.4794006,-49.3590849
8348,"rua marechal mascarenhas de moraes, TINGUI, Curitiba",-25.3843671,-49.2159454
8349,"rua antonio luiz de oliveira, PINHEIRINHO, Curitiba",-25.5244119,-49.2804126
8350,"rua andré cecone, CAMPINA DO SIQUEIRA, Curitiba",-25.4406431,-49.3122816
8351,"rua rio belem, BOQUEIRÃO, Curitiba",-25.4696459,-49.2472655
8352,"rua ernani benghi, SÍTIO CERCADO, Curitiba",-25.5420429,-49.2665343
8353,"rua álvaro eugênio ponestk, PINHEIRINHO, Curitiba",-25.5043747,-49.3244522
8354,"rua maria madalena de miranda wolfart, BOA VISTA, Curitiba",-25.3798812,-49.2472892
8355,"rua 29 de junho, SANTA CÂNDIDA, Curitiba",-25.3842756,-49.2309601
8356,"rua padre joão kominek, SANTA FELICIDADE, Curitiba",-25.4378357,-49.3581288
8357,"rua alvino carlos de sousa, BARREIRINHA, Curitiba",-25.3773771,-49.2590526
8358,"rua christina barletta tuoto, CIDADE INDUSTRIAL, Curitiba",-25.5139287,-49.3266402
8359,"rua sinke ferreira, JARDIM DAS AMÉRICAS, Curitiba",-25.4612509,-49.2282607
8360,"rua tesanta candida, SANTA CÂNDIDA, Curitiba",-25.3743,-49.2222692
8361,"rua said fatuch, JARDIM BOTÂNICO, Curitiba",-25.4442931,-49.2448199
8362,"rua paulo j buso, SANTA FELICIDADE, Curitiba",-25.3773529,-49.3317479
8363,"rua anjo de luz, BOA VISTA, Curitiba",-25.4623119,-49.3433633
8364,"rua pedro paulo coraiola, BAIRRO NAO INFORMADO, Curitiba",-25.551781,-49.2565403
8365,"rua pedro paulo coraiola, CAJURU, Curitiba",-25.551781,-49.2565403
8366,"rua musico antero g  da silva, SÍTIO CERCADO, Curitiba",-25.5547909,-49.2600178
8367,"rua cícero portes, SÍTIO CERCADO, Curitiba",-25.5263347,-49.2667184
8368,"rua lavrador joão silva ortiz, NOVO MUNDO, Curitiba",-25.4847468,-49.3118091
8369,"rua agenor saturnino ribeiro, ALTO BOQUEIRÃO, Curitiba",-25.5299305,-49.2438383
8370,"rua angelo massignan, SANTA FELICIDADE, Curitiba",-25.41079,-49.3528069
8371,"rua tacito cordeiro costa, ATUBA, Curitiba",-25.3822834,-49.2172811
8372,"rua professor erbo stenzel, SÍTIO CERCADO, Curitiba",-25.5423578,-49.2748886
8373,"rua engenheiro luiz natal bonin, TABOÃO, Curitiba",-25.367852,-49.2792761
8374,"rua rosa cavichiolo nichele, UMBARÁ, Curitiba",-25.5674299,-49.2832385
8375,"rua passarinhos, CIDADE INDUSTRIAL, Curitiba",-25.4343968,-49.2949567
8376,"rua jaracatiá, UBERABA, Curitiba",-25.4770685,-49.21336789999999
8377,"rua padre francisco chylaszek, CAMPO COMPRIDO, Curitiba",-25.4353749,-49.3551783
8378,"rua lourivaldo josé da costa, SANTA CÂNDIDA, Curitiba",-25.3663239,-49.22808329999999
8379,"rua inácio maximiliano da silva, CIDADE INDUSTRIAL, Curitiba",-25.5029685,-49.3241936
8380,"rua laurindo antonio segalla, CAJURU, Curitiba",-25.4758817,-49.19347519999999
8381,"rua joão falate, CAMPO COMPRIDO, Curitiba",-25.3568474,-49.2788221
8382,"rua doutor muricy, CABRAL, Curitiba",-25.4073645,-49.2480343
8383,"rua ari shinerman, TATUQUARA, Curitiba",-25.5713535,-49.3176453
8384,"rua ana ricardo cordeiro, UMBARÁ, Curitiba",-25.5559828,-49.2863759
8385,"rua joão ferreira sobrinho, CIDADE INDUSTRIAL, Curitiba",-25.5483648,-49.33089770000001
8386,"rua cidade alto parana, PINHEIRINHO, Curitiba",-25.5406374,-49.2971083
8387,"rua elpidio alves assumpcao, TINGUI, Curitiba",-25.3932867,-49.2207152
8388,"rua icaraíma, FAZENDINHA, Curitiba",-25.4803454,-49.3170708
8389,"rua vitória da conquista, SANTA FELICIDADE, Curitiba",-25.3744851,-49.3290192
8390,"rua josé sikora, PORTÃO, Curitiba",-25.4764225,-49.2934042
8391,"rua domingas vigo zaninelli, BACACHERI, Curitiba",-25.3856612,-49.231855
8392,"rua maria de campos, PORTÃO, Curitiba",-25.4716278,-49.3090193
8393,"rua jacob romanichen, XAXIM, Curitiba",-25.5010477,-49.2592199
8394,"rua jorge simão, BOQUEIRÃO, Curitiba",-25.5332797,-49.2479716
8395,"rua pedro fabri, CABRAL, Curitiba",-25.4007624,-49.25323299999999
8396,"rua doutor manoel magalhaes abreu, UBERABA, Curitiba",-25.4831789,-49.2328359
8397,"rua coronel francisco h dos santos, UBERABA, Curitiba",-25.4543647,-49.2302153
8398,"rua dos alfineiros, BOA VISTA, Curitiba",-25.3781859,-49.2493388
8399,"rua alfredo muraro, CASCATINHA, Curitiba",-25.3994112,-49.3088253
8400,"rua emilio telles de lima, CAMPO DE SANTANA, Curitiba",-25.5915743,-49.342568
8401,"rua maria da luz vialle medeiros, CAJURU, Curitiba",-25.4640475,-49.1940476
8402,"rua álvaro ronaldo de barros martins, CIDADE INDUSTRIAL, Curitiba",-25.4632424,-49.3449155
8403,"rua luiz antonio de andrade vieira, SANTA QUITÉRIA, Curitiba",-25.4808762,-49.3044253
8404,"rua general mario tourinho, BIGORRILHO, Curitiba",-25.4354216,-49.3090164
8405,"rua jornalista clemente comandulli, SANTA FELICIDADE, Curitiba",-25.4189739,-49.330849
8406,"rua maria trevisan tortato, NOVO MUNDO, Curitiba",-25.4903437,-49.28887410000001
8407,"rua projetada, SANTA CÂNDIDA, Curitiba",-25.3690362,-49.2364955
8408,"rua odete fatuch, BACACHERI, Curitiba",-25.394294,-49.2262369
8409,"rua lourenço pinto, SANTA CÂNDIDA, Curitiba",-25.4356483,-49.268409
8410,"rua br-476, CAPÃO RASO, Curitiba",-25.5094528,-49.2866912
8411,"rua engenheiro carlos westermann, JARDIM SOCIAL, Curitiba",-25.4271553,-49.2417838
8412,"rua doutor lauro gentio portugal tavares, UMBARÁ, Curitiba",-25.5376723,-49.2653603
8413,"rua felipe vítola, SÃO JOÃO, Curitiba",-25.4017761,-49.3142641
8414,"rua luiz carlos macedo d oliveira, CAMPO DE SANTANA, Curitiba",-25.5857105,-49.3415062
8415,"rua alvana flores, UMBARÁ, Curitiba",-25.560004,-49.283783
8416,"rua afonso refo, SANTA FELICIDADE, Curitiba",-25.4328735,-49.2960704
8417,"rua jornalista josé augusto gumy, PORTÃO, Curitiba",-25.4660288,-49.30357979999999
8418,"rua jose bajerski, CACHOEIRA, Curitiba",-25.3546803,-49.2717694
8419,"rua rio iriri, SANTA CÂNDIDA, Curitiba",-25.4023983,-49.20436309999999
8420,"rua argélia, CAJURU, Curitiba",-25.4683945,-49.21085859999999
8421,"rua marechal josé agostinho dos santos, CAPÃO DA IMBUIA, Curitiba",-25.4316344,-49.2111595
8422,"rua paul garfunkel, ATUBA, Curitiba",-25.5402881,-49.3355818
8423,"rua maria luzarte bertoldi, CIDADE INDUSTRIAL, Curitiba",-25.594793,-49.3377767
8424,"rua victorio malucelli, HAUER, Curitiba",-25.4850895,-49.2609197
8425,"rua ari jose valle, SANTA FELICIDADE, Curitiba",-25.3916802,-49.3188688
8426,"rua são francisco xavier, PILARZINHO, Curitiba",-25.3902544,-49.3025725
8427,"rua joao climaco de oliveira, XAXIM, Curitiba",-25.5039999,-49.2657827
8428,"rua guilherme wisniewski, SANTA CÂNDIDA, Curitiba",-25.3712504,-49.21323150000001
8429,"rua major moacir da fonseca lopes, CIDADE INDUSTRIAL, Curitiba",-25.513456,-49.3313298
8430,"rua joão mequetti, BOA VISTA, Curitiba",-25.376755,-49.2378355
8431,"rua do semeador, BAIRRO NAO INFORMADO, Curitiba",-25.4698026,-49.3501173
8432,"rua angelo rossa, CIDADE INDUSTRIAL, Curitiba",-25.4519128,-49.3468737
8433,"rua pastor lori massolin, CIDADE INDUSTRIAL, Curitiba",-25.5179261,-49.3302053
8434,"rua ana tosin, CIDADE INDUSTRIAL, Curitiba",-25.471435,-49.3097739
8435,"rua atilio piotto, CAJURU, Curitiba",-25.4801241,-49.1993439
8436,"rua deputado heitor alencar furtado, AUGUSTA, Curitiba",-25.4413387,-49.3420137
8437,"rua sylvio zeny, PORTÃO, Curitiba",-25.4684153,-49.2947169
8438,"rua erton coelho queiroz, ALTO BOQUEIRÃO, Curitiba",-25.525144,-49.22994019999999
8439,"rua joao itibere, JARDIM DAS AMÉRICAS, Curitiba",-25.4588739,-49.2304561
8440,"rua guilherme pugsley, PORTÃO, Curitiba",-25.4647735,-49.2900199
8441,"rua santo antonio da platina, AUGUSTA, Curitiba",-25.4556482,-49.3746711
8442,"rua tres (uberaba), UBERABA, Curitiba",-25.4762825,-49.2213541
8443,"rua sócrates, SANTA CÂNDIDA, Curitiba",-25.3642202,-49.2326997
8444,"rua doutor pedro zavaski, SÍTIO CERCADO, Curitiba",-25.5212885,-49.2714127
8445,"rua ernesto biscardi, CIDADE INDUSTRIAL, Curitiba",-25.5042806,-49.307243
8446,"rua gilmar josé carneiro, XAXIM, Curitiba",-25.5024095,-49.2623465
8447,"rua engenheiro jayme matzenbacher, ATUBA, Curitiba",-25.3836173,-49.2094731
8448,"rua guaraci, BOQUEIRÃO, Curitiba",-25.5172478,-49.2359758
8449,"rua maestro herrmann, PILARZINHO, Curitiba",-25.3979484,-49.2905964
8450,"rua ourizona, PINHEIRINHO, Curitiba",-25.5445824,-49.26188
8451,"rua capao raso, PORTÃO, Curitiba",-25.4707714,-49.3011701
8452,"rua attilio silva fonseca, SÍTIO CERCADO, Curitiba",-25.545391,-49.26180919999999
8453,"rua franz kroeker, XAXIM, Curitiba",-25.522882,-49.2639029
8454,"rua linha verde, UBERABA, Curitiba",-25.4837908,-49.2654498
8455,"rua poeta sidônio muralha, SÃO BRAZ, Curitiba",-25.4137562,-49.3388834
8456,"rua darci vargas, PORTÃO, Curitiba",-25.4792878,-49.3468526
8457,"rua marechal deodoro, BOQUEIRÃO, Curitiba",-25.4269936,-49.2577639
8458,"rua elvira mafalda cavichiolo, UBERABA, Curitiba",-25.4893456,-49.1985917
8459,"rua francisco frischmann, CIDADE INDUSTRIAL, Curitiba",-25.470167,-49.2954332
8460,"rua desemb carlos pinheiro guimaraes, SÍTIO CERCADO, Curitiba",-25.5443701,-49.25519449999999
8461,"rua lucas carvalho, PINHEIRINHO, Curitiba",-25.5914276,-49.3332252
8462,"rua escritor antonio de alcantara machado, NOVO MUNDO, Curitiba",-25.53783,-49.2597659
8463,"rua joão alberto de mio, PORTÃO, Curitiba",-25.5679217,-49.3264831
8464,"rua onze quadra 16, CIDADE INDUSTRIAL, Curitiba",-23.2999171,-48.0550724
8465,"rua ailton galego, PINHEIRINHO, Curitiba",-25.3736613,-49.2162083
8466,"rua waldemar  daros, CIDADE INDUSTRIAL, Curitiba",-25.5295928,-49.3383827
8467,"rua engenheiro lourival maciel, MOSSUNGUÊ, Curitiba",-25.4421277,-49.32744779999999
8468,"rua eleonora  roosvelt, BACACHERI, Curitiba",-25.386224,-49.2231754
8469,"rua juarez silva, CACHOEIRA, Curitiba",-25.3546594,-49.260817
8470,"rua harry grahl, UMBARÁ, Curitiba",-25.5593358,-49.2840286
8471,"rua ângelo stival, SANTA FELICIDADE, Curitiba",-25.3955978,-49.3396739
8472,"rua domingos gonçalves, SÍTIO CERCADO, Curitiba",-25.5413237,-49.2741616
8473,"rua rua 1, UBERABA, Curitiba",-25.4858632,-49.2193668
8474,"rua zeferino pires barbosa, ORLEANS, Curitiba",-25.4260982,-49.3569105
8475,"rua av. sete de setembro, SEMINÁRIO, Curitiba",-25.450265,-49.2996358
8476,"rua lindolfo pessoa, SEMINÁRIO, Curitiba",-25.4514347,-49.295903
8477,"rua teixeira soares, SEMINÁRIO, Curitiba",-25.4516133,-49.2989776
8478,"rua tenente coronel benjamim lage, CAJURU, Curitiba",-25.4985509,-49.2185304
8479,"rua elzira harthman, CIDADE INDUSTRIAL, Curitiba",-25.4648492,-49.3400026
8480,"rua arnaldo pisseti, BAIRRO ALTO, Curitiba",-25.416498,-49.2109134
8481,"rua cesar pereira da silva (cidade industrial), CIDADE INDUSTRIAL, Curitiba",-25.5037525,-49.337241
8482,"rua sergio pereira da silva, VISTA ALEGRE, Curitiba",-25.4011548,-49.2920424
8483,"rua sao romoaldo, CIDADE INDUSTRIAL, Curitiba",-25.5000852,-49.34683649999999
8484,"rua rua sete, GANCHINHO, Curitiba",43.4078758,3.7008219
8485,"rua vicente michelotto, ALTO BOQUEIRÃO, Curitiba",-25.5229471,-49.3329999
8486,"rua padre júlio de campos, CENTRO, Curitiba",-25.428589,-49.2715195
8487,"rua joao waldir teixeira de faria, BARREIRINHA, Curitiba",-25.3687991,-49.25777979999999
8488,"rua albina lunardon dariva, BOA VISTA, Curitiba",-25.3905864,-49.2512635
8489,"rua joão paulo bonetti, SÃO JOÃO, Curitiba",-25.3968188,-49.3151728
8490,"rua veronica tribek moro, CAMPO COMPRIDO, Curitiba",-25.4628314,-49.3397199
8491,"rua joao nichele, UMBARÁ, Curitiba",-25.5755874,-49.28325539999999
8492,"rua lido dall agnol, CAMPO DE SANTANA, Curitiba",-25.6012687,-49.33115910000001
8493,"rua anita garibaldi, CENTRO CÍVICO, Curitiba",-25.3805505,-49.2614333
8494,"rua maria angela pachaly, ATUBA, Curitiba",-25.3864708,-49.19900759999999
8495,"rua antonio andriguetto, UBERABA, Curitiba",-25.5000477,-49.2168834
8496,"rua euzebio ansai, NOVO MUNDO, Curitiba",-25.4963898,-49.30648129999999
8497,"rua monteiro lobato, PILARZINHO, Curitiba",-25.3745888,-49.2979395
8498,"rua deputado ulisses guimaraes, PINHEIRINHO, Curitiba",-25.5320185,-49.282869
8499,"rua roberto koch, GUAÍRA, Curitiba",-25.4763917,-49.28102879999999
8500,"rua formosa do oeste, CAMPO COMPRIDO, Curitiba",-25.475564,-49.34924720000001
8501,"rua paulo cesar cordeiro, CAMPO COMPRIDO, Curitiba",-25.438848,-49.3488814
8502,"rua helena reichmann massignan, CIDADE INDUSTRIAL, Curitiba",-25.5018866,-49.3437381
8503,"rua presidente hafez al assad, CIDADE INDUSTRIAL, Curitiba",-25.5040295,-49.3297882
8504,"rua agostinho legros, BOQUEIRÃO, Curitiba",-25.5178006,-49.2363926
8505,"rua ismael de almeida, CAMPO DE SANTANA, Curitiba",-25.5935556,-49.3446465
8506,"rua nicolau gulbino, CAPÃO DA IMBUIA, Curitiba",-25.4359114,-49.2248032
8507,"rua comendador david dos santos pacheco, VISTA ALEGRE, Curitiba",-25.4122931,-49.30054699999999
8508,"rua cora coralina, SANTA CÂNDIDA, Curitiba",-25.3663478,-49.22481399999999
8509,"rua aldo pigozzi, CIDADE INDUSTRIAL, Curitiba",-25.4829817,-49.3498965
8510,"rua otaviano de almeida rosa, XAXIM, Curitiba",-25.5010607,-49.2762797
8511,"rua capitao leonidas marques, JARDIM DAS AMÉRICAS, Curitiba",-25.4697706,-49.2190465
8512,"rua flavio de azevedo macedo, SÃO LOURENÇO, Curitiba",-25.4002496,-49.2732347
8513,"rua eduardo pinto da rocha, XAXIM, Curitiba",-25.55888,-49.2604464
8514,"rua joão michelle, SÍTIO CERCADO, Curitiba",-25.5755874,-49.28325539999999
8515,"rua major julio ribeiro de campos, SÍTIO CERCADO, Curitiba",-25.5500904,-49.259456
8516,"rua antônio de paula frança, CASCATINHA, Curitiba",-25.4076966,-49.3083783
8517,"rua av. prefeito mauricio fruet, CAJURU, Curitiba",-25.4397073,-49.2237836
8518,"rua padre vieira, GUABIROTUBA, Curitiba",-25.4546414,-49.2429423
8519,"rua rio jutaí, BAIRRO ALTO, Curitiba",-25.3925819,-49.2072771
8520,"rua ulisses jose ribeiro, UBERABA, Curitiba",-25.4725724,-49.2287939
8521,"rua professor nicephoto modesto falarz (ganchinho), SÍTIO CERCADO, Curitiba",-25.5600048,-49.2532522
8522,"rua bortolo pelanda, PINHEIRINHO, Curitiba",-25.5607164,-49.2933138
8523,"rua salvador evangelista, ALTO BOQUEIRÃO, Curitiba",-25.5276467,-49.2444253
8524,"rua josé valle, TINGUI, Curitiba",-25.4021113,-49.3108999
8525,"rua josé baggio, SANTA FELICIDADE, Curitiba",-25.4486425,-49.3265878
8526,"rua durval jungles, PINHEIRINHO, Curitiba",-25.5232416,-49.2918156
8527,"rua pedro hansaul, PORTÃO, Curitiba",-25.4765746,-49.3057645
8528,"rua arakem távora, CIDADE INDUSTRIAL, Curitiba",-25.4989974,-49.33544930000001
8529,"rua curitiba rio branco pr-092, TABOÃO, Curitiba",-25.3739162,-49.2740221
8530,"rua dos ferroviários, CAPÃO DA IMBUIA, Curitiba",-25.4505226,-49.2076132
8531,"rua jose dionisio  ribeiro batista, NOVO MUNDO, Curitiba",-25.4848082,-49.30936459999999
8532,"rua professora sandalia monzon, SANTA CÂNDIDA, Curitiba",-25.3772747,-49.2269833
8533,"rua wilson gomes ramos, TABOÃO, Curitiba",-25.3606478,-49.276718
8534,"rua professor modesto falarz, SÍTIO CERCADO, Curitiba",-25.5600048,-49.2532522
8535,"rua capitao guilherme bianchi, CAJURU, Curitiba",-25.4582371,-49.2101519
8536,"rua reinaldo rodrigues de lima, CAJURU, Curitiba",-25.4642044,-49.19818919999999
8537,"rua josefina trevisan strapasson, SANTA FELICIDADE, Curitiba",-25.4019255,-49.34278639999999
8538,"rua josé raksa, CAPÃO RASO, Curitiba",-25.5051185,-49.3032538
8539,"rua andré visinoni, CAMPO COMPRIDO, Curitiba",-25.436252,-49.3594849
8540,"rua paschoal bordignon, SÍTIO CERCADO, Curitiba",-25.4441472,-49.2460156
8541,"rua canal belém, SANTA CÂNDIDA, Curitiba",-25.4854914,-49.2346413
8542,"rua irmã maria leontina de assis, CIDADE INDUSTRIAL, Curitiba",-25.513431,-49.3296269
8543,"rua antonio helio ferraz de oliveira, CIDADE INDUSTRIAL, Curitiba",-25.5262365,-49.3358543
8544,"rua luciano hella, SANTA FELICIDADE, Curitiba",-25.4409878,-49.31577739999999
8545,"rua andré gonçalves da silva, ATUBA, Curitiba",-25.3840475,-49.1952348
8546,"rua joão gribogi, CAJURU, Curitiba",-25.4646588,-49.2146497
8547,"rua expedicionário joão protzek, ALTO BOQUEIRÃO, Curitiba",-25.5331393,-49.2444069
8548,"rua vicente nicolau kopytowski, XAXIM, Curitiba",-25.4950081,-49.2604199
8549,"rua jair de souza lima, CAJURU, Curitiba",-25.4706616,-49.1879106
8550,"rua joaquim da costa ribeiro, ATUBA, Curitiba",-25.3954152,-49.2065886
8551,"rua cic, CIDADE INDUSTRIAL, Curitiba",-25.5144986,-49.3196334
8552,"rua eunice bettini bartoszeck, CAJURU, Curitiba",-25.4864573,-49.2036619
8553,"rua joao kasdorf, BOQUEIRÃO, Curitiba",-25.5180328,-49.2651334
8554,"rua david bodziak, BOA VISTA, Curitiba",-25.3531761,-49.2561964
8555,"rua rubens guimares coutinho, PINHEIRINHO, Curitiba",-25.5224497,-49.2756365
8556,"rua amazor mathozo de deus, CENTRO, Curitiba",-25.5338991,-49.3328529
8557,"rua doutor joão nassif, NOVO MUNDO, Curitiba",-25.3732466,-49.2108857
8558,"rua da frança, SANTA FELICIDADE, Curitiba",-25.4076966,-49.3083783
8559,"rua campo comprido, CAMPO COMPRIDO, Curitiba",-25.4668761,-49.3274627
8560,"rua professor nicephoto modesto falarz, GANCHINHO, Curitiba",-25.5600048,-49.2532522
8561,"rua anita jonson zuctanski, SÍTIO CERCADO, Curitiba",-25.5458743,-49.2531622
8562,"rua delegado miguel zacarias, ABRANCHES, Curitiba",-25.3800417,-49.2460749
8563,"rua alberto de oliveira, BAIRRO ALTO, Curitiba",-25.415287,-49.2140856
8564,"rua tecic, CIDADE INDUSTRIAL, Curitiba",43.8228421,21.1164558
8565,"rua do trabalahdor, CAJURU, Curitiba",-25.4541704,-49.2141019
8566,"rua icarai, CAJURU, Curitiba",-25.461352,-49.2089687
8567,"rua est. delegado bruno de almeida, CAXIMBA, Curitiba",-25.6031512,-49.32605359999999
8568,"rua luiz antonio de andrade vieira, UBERABA, Curitiba",-25.4844548,-49.2040333
8569,"rua piazza san marco, SANTA FELICIDADE, Curitiba",-25.4119908,-49.3307349
8570,"rua larserdopleos, CIDADE INDUSTRIAL, Curitiba",-25.4506781,-49.355733
8571,"rua eduardo aguirre calabresi, BOA VISTA, Curitiba",-25.4340109,-49.2421569
8572,"rua dionira moletta klemtz, FAZENDINHA, Curitiba",-25.4704068,-49.32018619999999
8573,"rua mato grosso, CIDADE INDUSTRIAL, Curitiba",-12.6818712,-56.921099
8574,"rua josé zgoda, BAIRRO ALTO, Curitiba",-25.4160999,-49.2196958
8575,"rua sao jose de arimateia, SÍTIO CERCADO, Curitiba",-25.5379224,-49.2680094
8576,"rua doutor eduardo mendes goncalves, BAIRRO ALTO, Curitiba",-25.4132534,-49.2130704
8577,"rua irmã faustina kowalska, TATUQUARA, Curitiba",-25.5667015,-49.3294461
8578,"rua radialista josé vicente, CIDADE INDUSTRIAL, Curitiba",-25.5022197,-49.3392535
8579,"rua dos eucaliptos, BOA VISTA, Curitiba",-25.3682906,-49.1786854
8580,"rua expedicionário adir jorge, ALTO BOQUEIRÃO, Curitiba",-25.5366205,-49.2431248
8581,"rua princesa izabel, MERCÊS, Curitiba",-25.4296947,-49.2822476
8582,"rua ludovico bauml, CIDADE INDUSTRIAL, Curitiba",-25.4904265,-49.3338709
8583,"rua madureira, CAJURU, Curitiba",-25.4504633,-49.2219108
8584,"rua marquês de beccaria, PINHEIRINHO, Curitiba",-25.5376992,-49.3004074
8585,"rua rogério xavier rocha loures, PINHEIRINHO, Curitiba",-25.5322734,-49.2843902
8586,"rua bona busnello, JARDIM DAS AMÉRICAS, Curitiba",-25.4634736,-49.2213557
8587,"rua laura evangelina bastos do valle, CIDADE INDUSTRIAL, Curitiba",-25.4553108,-49.3508727
8588,"rua paulino mocelin, FAZENDINHA, Curitiba",-25.4853451,-49.3379097
8589,"rua quadra 9, TATUQUARA, Curitiba",-25.5647384,-49.3282697
8590,"rua francisco antonio ribeiro, ATUBA, Curitiba",-25.3855437,-49.1965916
8591,"rua theodoro makiolka, BOA VISTA, Curitiba",-25.3656064,-49.2408317
8592,"rua maria joana farias, PILARZINHO, Curitiba",-25.3812281,-49.2929796
8593,"rua são sérgio, CIDADE INDUSTRIAL, Curitiba",-25.5102472,-49.3247471
8594,"rua constantino falcão, CASCATINHA, Curitiba",-25.4131633,-49.3084946
8595,"rua lúcio rasera, BIGORRILHO, Curitiba",-25.4308272,-49.3047102
8596,"rua izidoro mario paul, SANTA CÂNDIDA, Curitiba",-25.3701641,-49.2119285
8597,"rua dea taques de mesquita, SÍTIO CERCADO, Curitiba",-25.539189,-49.261509
8598,"rua albino tortato, CAMPO DE SANTANA, Curitiba",-25.5924644,-49.3286844
8599,"rua pedro calixto, UMBARÁ, Curitiba",-25.5959821,-49.2742423
8600,"rua estanislau wildner, ALTO BOQUEIRÃO, Curitiba",-25.5265317,-49.2355524
8601,"rua hilda meireles leal, SÃO FRANCISCO, Curitiba",-25.4189324,-49.275805
8602,"rua bento munhoz da rocha neto, GUAÍRA, Curitiba",-25.4654417,-49.2773455
8603,"rua br-476, ATUBA, Curitiba",-25.388536,-49.2050494
8604,"rua joão rodolfo schlenker, PORTÃO, Curitiba",-25.4672522,-49.2895208
8605,"rua maria silka couston, BOQUEIRÃO, Curitiba",-25.5188938,-49.2470911
8606,"rua zenite pucci simão, ALTO BOQUEIRÃO, Curitiba",-25.5397013,-49.2409869
8607,"rua lauro mallin, CASCATINHA, Curitiba",-25.4091363,-49.3102836
8608,"rua engenheiro romulo gutierrez, VISTA ALEGRE, Curitiba",-25.4101101,-49.2896692
8609,"rua alberto bolliger, ALTO DA GLÓRIA, Curitiba",-25.4186573,-49.257599
8610,"rua raul poitevin, ALTO BOQUEIRÃO, Curitiba",-25.530496,-49.2394752
8611,"rua johann sebastian bach, VISTA ALEGRE, Curitiba",-25.4040734,-49.2871597
8612,"rua hortencio marino dos santos, CIDADE INDUSTRIAL, Curitiba",-25.5400743,-49.3396543
8613,"rua imbituva, CAJURU, Curitiba",-25.4581686,-49.2133033
8614,"rua rua, CIDADE INDUSTRIAL, Curitiba",-25.4506781,-49.355733
8615,"rua rogerio gimenez, SÍTIO CERCADO, Curitiba",-25.5273999,-49.2653299
8616,"rua augustinha maria ribeiro abrão, TATUQUARA, Curitiba",-25.5785112,-49.3377316
8617,"rua próx. alencar heitor furtado, MOSSUNGUÊ, Curitiba",-25.437083,-49.3265897
8618,"rua leonel furlan, SANTA FELICIDADE, Curitiba",-25.4048755,-49.333335
8619,"rua antonio zeni, CAPÃO DA IMBUIA, Curitiba",-25.4377906,-49.2224127
8620,"rua parnaíba, SÃO FRANCISCO, Curitiba",-25.421881,-49.2791631
8621,"rua albino silva, SÃO FRANCISCO, Curitiba",-25.4170297,-49.2767434
8622,"rua sete de setembro, CAJURU, Curitiba",-25.4401856,-49.273565
8623,"rua nossa senhora do perpetuo socorro, CAPÃO RASO, Curitiba",-25.5094248,-49.3002875
8624,"rua pedro bonat, NOVO MUNDO, Curitiba",-25.4948668,-49.292518
8625,"rua tenente joão gomes da silva, MERCÊS, Curitiba",-25.4181839,-49.2865647
8626,"rua sao paulo, GUAÍRA, Curitiba",-25.4671717,-49.2774543
8627,"rua coronel verginio leinig de mello, ABRANCHES, Curitiba",-25.3651248,-49.2751635
8628,"rua bento viana, BATEL, Curitiba",-25.4458162,-49.2838404
8629,"rua julio moura rodrigues, SÍTIO CERCADO, Curitiba",-25.5431221,-49.25899769999999
8630,"rua ana jorge de oliveira carvalho, BOQUEIRÃO, Curitiba",-25.5278539,-49.23918490000001
8631,"rua santo hilário, CIDADE INDUSTRIAL, Curitiba",-25.5032203,-49.3219636
8632,"rua 1º de setembro, CAXIMBA, Curitiba",-25.6165382,-49.35423309999999
8633,"rua francisco hernandes bastida, SÃO JOÃO, Curitiba",-25.3943466,-49.3142839
8634,"rua luiz miguel fanchin, SANTA FELICIDADE, Curitiba",-25.4437622,-49.3130351
8635,"rua joaquim gomes, SANTA CÂNDIDA, Curitiba",-25.3774311,-49.2335699
8636,"rua manoel diniz, SANTA QUITÉRIA, Curitiba",-25.4621866,-49.3173141
8637,"rua quadra 4, CAMPO DE SANTANA, Curitiba",-25.5915928,-49.3371224
8638,"rua atílio vieira de moura, SANTO INÁCIO, Curitiba",-25.5073654,-49.335819
8639,"rua sérgio alessandro gonçalves, CIDADE INDUSTRIAL, Curitiba",-25.500957,-49.3471866
8640,"rua professora aida de alvarenga bonatto, TATUQUARA, Curitiba",-25.5419459,-49.30203359999999
8641,"rua waldemar orso, PINHEIRINHO, Curitiba",-25.5809276,-49.3220544
8642,"rua anjolilo buzetti, CIDADE INDUSTRIAL, Curitiba",-25.529193,-49.3326633
8644,"rua antônio dionisio marach, CIDADE INDUSTRIAL, Curitiba",-25.3556513,-49.2589192
8645,"rua vila 1º de maio, TATUQUARA, Curitiba",-25.5014016,-49.3432476
8646,"rua caseará, SÍTIO CERCADO, Curitiba",-9.2765305,-49.9525634
8647,"rua cesario kuroski, CIDADE INDUSTRIAL, Curitiba",-25.4601234,-49.3469194
8648,"rua comendador joão lackner, GUAÍRA, Curitiba",-25.4680099,-49.26753739999999
8649,"rua pc. afonso botelho, REBOUÇAS, Curitiba",-25.4468234,-49.2748601
8650,"rua antonio lago, BACACHERI, Curitiba",-25.3880707,-49.2398151
8651,"rua professora valdomira zortea, UMBARÁ, Curitiba",-25.5588526,-49.2795888
8652,"rua janiopolis, ALTO BOQUEIRÃO, Curitiba",-25.5418798,-49.2411504
8653,"rua deodato ribas saboia, CIDADE INDUSTRIAL, Curitiba",-25.510809,-49.3242501
8654,"rua est. delegado bruno de almeida, TATUQUARA, Curitiba",-25.5706412,-49.31631369999999
8655,"rua mário yassumoto seita, GANCHINHO, Curitiba",-25.5561189,-49.2487643
8656,"rua abelardo barbosa  - chacrinha, TATUQUARA, Curitiba",-25.5743951,-49.33928479999999
8657,"rua lourival francisco ribeiro, CIDADE INDUSTRIAL, Curitiba",-25.5073924,-49.3387
8658,"rua paulo de avelar-jose b barbosa, PINHEIRINHO, Curitiba",-25.5215306,-49.2888578
8659,"rua dinorah morais azevedo, UMBARÁ, Curitiba",-25.5555822,-49.2781788
8660,"rua jose de alencar, ALTO DA RUA XV, Curitiba",-25.428273,-49.2538181
8661,"rua miguel brenner, SEMINÁRIO, Curitiba",-25.4453963,-49.29705149999999
8662,"rua jose peon, CIDADE INDUSTRIAL, Curitiba",-25.4513946,-49.3431234
8663,"rua 7, PINHEIRINHO, Curitiba",-25.4401856,-49.273565
8664,"rua joaquim dos anjos, BARREIRINHA, Curitiba",-25.4959758,-49.2769766
8665,"rua humberto levis, BARREIRINHA, Curitiba",-25.3633034,-49.265168
8666,"rua professor camillo stellfeld, JARDIM DAS AMÉRICAS, Curitiba",-25.4579562,-49.2358627
8667,"rua mário mendes de lara, CAJURU, Curitiba",-25.4813787,-49.2317099
8668,"rua agripino ribeiro de freitas, CAJURU, Curitiba",-25.4535144,-49.2152895
8669,"rua juraci nadalin, FAZENDINHA, Curitiba",-25.4738089,-49.3258945
8670,"rua celeste dallabona escorsin (capão da imbuia), CAPÃO DA IMBUIA, Curitiba",-25.4322138,-49.2057316
8671,"rua gildo lazzarotto, CIDADE INDUSTRIAL, Curitiba",-25.4623785,-49.3491279
8672,"rua são mateus, TATUQUARA, Curitiba",-25.477939,-49.2969249
8673,"rua nossa senhora do sagrado coracao, PINHEIRINHO, Curitiba",-25.5337636,-49.2958177
8674,"rua do ganchinho- ld, UMBARÁ, Curitiba",-25.5801892,-49.2673187
8675,"rua celeste dallabona escorsin, CAPÃO DA IMBUIA, Curitiba",-25.4322138,-49.2057316
8676,"rua padre victor dewor, CAMPO COMPRIDO, Curitiba",-25.4393808,-49.357238
8677,"rua miguel rosselin, TATUQUARA, Curitiba",-25.5647384,-49.3282697
8678,"rua paulo kissula, CAJURU, Curitiba",-25.4379801,-49.205633
8679,"rua julia fecci mello, UMBARÁ, Curitiba",-25.5575926,-49.26149590000001
8680,"rua dulcilia sequinele pinheiro, BOQUEIRÃO, Curitiba",-25.5023747,-49.25337469999999
8681,"rua coronel luiz jose dos santos, BOQUEIRÃO, Curitiba",-25.4980576,-49.2461272
8682,"rua 29 de junho, BOA VISTA, Curitiba",-25.3861837,-49.2291935
8683,"rua 11 de agosto, XAXIM, Curitiba",-25.5148201,-49.266882
8684,"rua coronel joão cândido de oliveira, ABRANCHES, Curitiba",-25.3631007,-49.28105540000001
8685,"rua beija flor, BOQUEIRÃO, Curitiba",-25.5184934,-49.1700052
8686,"rua edgar bruno franke, BOA VISTA, Curitiba",-25.3829186,-49.2431296
8687,"rua sebastião gomes oliveira, PINHEIRINHO, Curitiba",-25.5276656,-49.2779028
8688,"rua gino benuzzi, CIDADE INDUSTRIAL, Curitiba",-25.4926048,-49.3314491
8689,"rua r. joao eloy de souza, SÍTIO CERCADO, Curitiba",-25.526748,-49.265258
8690,"rua belmiro krüger, TATUQUARA, Curitiba",-25.589376,-49.3418839
8691,"rua dos bem-te-vis, NOVO MUNDO, Curitiba",-25.492422,-49.2843774
8692,"rua av. presidente wenceslau braz, TATUQUARA, Curitiba",-25.4749753,-49.2736584
8693,"rua tebairro alto, BAIRRO ALTO, Curitiba",-25.4112352,-49.206914
8694,"rua tevila hauer, ALTO BOQUEIRÃO, Curitiba",-25.4776581,-49.2493241
8695,"rua joao amadeu pedro bom, TATUQUARA, Curitiba",-25.5511225,-49.29871110000001
8696,"rua dr othon accioly rodrigues da costa, CAJURU, Curitiba",-25.4723116,-49.20859590000001
8697,"rua emilia m uba, CACHOEIRA, Curitiba",-25.3543235,-49.2541866
8698,"rua joão turin, BATEL, Curitiba",-25.4452885,-49.2824494
8699,"rua rosa manfron ferro, PINHEIRINHO, Curitiba",-25.5321397,-49.2889634
8700,"rua poths veloso, PAROLIN, Curitiba",-25.4626549,-49.2661088
8701,"rua chichorro junior, CABRAL, Curitiba",-25.4082143,-49.2523983
8702,"rua angelina de lima  pires oliveira, TATUQUARA, Curitiba",-25.5733201,-49.3297654
8703,"rua joao martinski, CAJURU, Curitiba",-25.4487975,-49.21718449999999
8704,"rua antonio hipolito, ALTO BOQUEIRÃO, Curitiba",-25.5358122,-49.24533410000001
8705,"rua tv. angelina de l  p  oliveira, TATUQUARA, Curitiba",-25.5733201,-49.3297654
8706,"rua josé clovis de oliveira weisheimer, CAJURU, Curitiba",-25.4526332,-49.21558049999999
8707,"rua afonso correia de morais, CAJURU, Curitiba",-25.449236,-49.225606
8708,"rua cinco de maio, ALTO BOQUEIRÃO, Curitiba",-25.5391661,-49.2435315
8709,"rua jacintho vanelli, SÃO LOURENÇO, Curitiba",-25.3824291,-49.2634968
8710,"rua três corações, JARDIM BOTÂNICO, Curitiba",-25.3743527,-49.3281145
8711,"rua assírio gomes martins, TABOÃO, Curitiba",-25.3664272,-49.27948139999999
8712,"rua francisco tessari, FAZENDINHA, Curitiba",-25.4909186,-49.3258424
8713,"rua desembargador augusto guimaraes côrtes, CAMPINA DO SIQUEIRA, Curitiba",-25.4344193,-49.3130955
8714,"rua josé romano, ATUBA, Curitiba",-25.372452,-49.2085215
8715,"rua capitao domingos castellano, SANTO INÁCIO, Curitiba",-25.4294384,-49.3432658
8716,"rua luiz esperandio (santo inacio), SANTA FELICIDADE, Curitiba",-25.4275631,-49.3464051
8717,"rua valparaízo, BACACHERI, Curitiba",-25.408891,-49.2355387
8718,"rua doutor roberto barrozo, VISTA ALEGRE, Curitiba",-25.4153149,-49.28463559999999
8719,"rua marechal deodoro, ÁGUA VERDE, Curitiba",-25.4269936,-49.2577639
8720,"rua alfredo heisler, BACACHERI, Curitiba",-25.3971409,-49.221884
8721,"rua rio br 277 rodovia do café, TATUQUARA, Curitiba",-22.9068467,-43.1728965
8722,"rua francisco skrock, SÍTIO CERCADO, Curitiba",-25.5430101,-49.2487036
8723,"rua ambiental, CENTRO, Curitiba",-25.4351674,-49.2754909
8724,"rua marcos moro, SÃO FRANCISCO, Curitiba",-25.4173705,-49.27267490000001
8725,"rua manoel eufrásio, AHÚ, Curitiba",-25.4095791,-49.2634982
8726,"rua jornalista alexandre zraik, CENTRO, Curitiba",-25.375182,-49.2371014
8727,"rua joão max rosener, HUGO LANGE, Curitiba",-25.417167,-49.24736
8728,"rua kornel denega, PAROLIN, Curitiba",-25.4662829,-49.2903143
8729,"rua otilia  maria carlota frank curitiba, FAZENDINHA, Curitiba",-25.4838467,-49.3375565
8730,"rua antonio de paula franca, CASCATINHA, Curitiba",-25.4076966,-49.3083783
8731,"rua reinaldo m von der osten, PILARZINHO, Curitiba",-25.386912,-49.2924106
8732,"rua angelica negrello de conto, UMBARÁ, Curitiba",-25.5680838,-49.2867873
8733,"rua doutor celso luiz peixoto ribas, SANTA QUITÉRIA, Curitiba",-25.4654718,-49.3209551
8734,"rua vereador antonio carnasciali, BOQUEIRÃO, Curitiba",-25.4950492,-49.2468554
8735,"rua arthur mohr, PORTÃO, Curitiba",-25.474098,-49.2990939
8736,"rua oswaldo portugal lobato, SANTA CÂNDIDA, Curitiba",-25.3811019,-49.232155
8737,"rua honory ramos sodré, TATUQUARA, Curitiba",-25.557539,-49.33347740000001
8738,"rua grandes rios, CIDADE INDUSTRIAL, Curitiba",-25.475288,-49.3462423
8739,"rua agostinho angelo trevisan, UBERABA, Curitiba",-25.4897497,-49.2203115
8740,"rua myltho anselmo da silva, MERCÊS, Curitiba",-25.4194745,-49.28643719999999
8741,"rua manoel felipe daher, FAZENDINHA, Curitiba",-25.4774848,-49.3171179
8742,"rua waldemar orso (campo de santana), CAMPO DE SANTANA, Curitiba",-25.5809276,-49.3220544
8743,"rua doutor pâmphilo d assumpção, PAROLIN, Curitiba",-25.4595941,-49.2613937
8744,"rua ady romária conceição mendonça, UBERABA, Curitiba",-25.4835546,-49.1974992
8745,"rua miguel gasparin, BARREIRINHA, Curitiba",-25.3793324,-49.257678
8746,"rua evaldo miquel, UBERABA, Curitiba",-25.3946264,-49.2720017
8747,"rua renato hugo vardanega, CIDADE INDUSTRIAL, Curitiba",-25.496307,-49.3405762
8748,"rua salto do itararé, FAZENDINHA, Curitiba",-25.4773987,-49.3454105
8749,"rua augusto stellfeld, MERCÊS, Curitiba",-25.4306041,-49.2807416
8750,"rua jeronimo de souza sobrinho, CIDADE INDUSTRIAL, Curitiba",-25.5123314,-49.336751
8751,"rua nova america, CAMPO COMPRIDO, Curitiba",-25.470869,-49.3312964
8752,"rua joao scuissiato, SANTA QUITÉRIA, Curitiba",-25.4618801,-49.3147707
8753,"rua general ibere de mattos, BACACHERI, Curitiba",-25.3910771,-49.23281009999999
8754,"rua br cento e dezesseis, CRISTO REI, Curitiba",-25.4364648,-49.2341984
8755,"rua moises ferreira, PINHEIRINHO, Curitiba",-25.5368022,-49.2859965
8756,"rua arlindo de lara, TINGUI, Curitiba",-25.3857569,-49.2215277
8757,"rua conceicao (tatuquara), TATUQUARA, Curitiba",-25.5554132,-49.3286044
8758,"rua deputado atilio de almeida barbosa, BOA VISTA, Curitiba",-25.3890372,-49.2406894
8759,"rua salomão guelmann, NOVO MUNDO, Curitiba",-25.4829345,-49.2955774
8760,"rua conjunto concordia, CIDADE INDUSTRIAL, Curitiba",-25.4506781,-49.355733
8761,"rua ari shoenemann (tatuquara), TATUQUARA, Curitiba",-25.5713535,-49.3176453
8762,"rua halim youssef ghanem, CIDADE INDUSTRIAL, Curitiba",-25.5022756,-49.32300859999999
8763,"rua francisco negrão, ÁGUA VERDE, Curitiba",-25.456455,-49.27648550000001
8764,"rua coronel isaias natel de paula, BOM RETIRO, Curitiba",-25.4061966,-49.280681
8765,"rua lorena, GUABIROTUBA, Curitiba",-25.4621596,-49.2442814
8766,"rua marciano dombeck, SEMINÁRIO, Curitiba",-25.4542148,-49.3028664
8767,"rua leoni medeiros guimarães, CIDADE INDUSTRIAL, Curitiba",-25.4935407,-49.3483642
8768,"rua francisco ferreira filho, UMBARÁ, Curitiba",-25.5553137,-49.281673
8769,"rua ilhabela, CIDADE INDUSTRIAL, Curitiba",-25.5027044,-49.3390694
8770,"rua geraldo taparosk, PAROLIN, Curitiba",-25.5267455,-49.2364683
8771,"rua doutor muricy, TATUQUARA, Curitiba",-25.432445,-49.2722218
8772,"rua sargento oswaldo bond, UBERABA, Curitiba",-25.4922189,-49.20985330000001
8773,"rua fioravante baggio, CIDADE INDUSTRIAL, Curitiba",-25.4630937,-49.3473163
8774,"rua melania zeni visinoni(campo de santana), TATUQUARA, Curitiba",-25.5760805,-49.3214397
8775,"rua santa joana d arc, LINDÓIA, Curitiba",-25.479591,-49.27852050000001
8776,"rua doutor correa coelho, JARDIM BOTÂNICO, Curitiba",-25.4399651,-49.24026019999999
8777,"rua delegado leopoldo belczak, CAJURU, Curitiba",-25.4376253,-49.2213228
8778,"rua terezinha maia, TATUQUARA, Curitiba",-25.5856788,-49.3427905
8779,"rua maria petroski, BACACHERI, Curitiba",-25.397094,-49.2146634
8780,"rua maria luiza alves de moraes, CIDADE INDUSTRIAL, Curitiba",-25.5454748,-49.3426883
8781,"rua francisco guilherme bahr, SANTA CÂNDIDA, Curitiba",-25.3792968,-49.2263481
8782,"rua marechal hermes, AHÚ, Curitiba",-25.4076687,-49.2668873
8783,"rua joao mariano gorski, CIDADE INDUSTRIAL, Curitiba",-25.5105446,-49.3214358
8784,"rua ulisses aurelio visinoni, SÃO MIGUEL, Curitiba",-25.4898739,-49.3623288
8785,"rua joão garbers, CIDADE INDUSTRIAL, Curitiba",-25.4942452,-49.3374756
8786,"rua dr. francisco souza castro, CAJURU, Curitiba",-25.4913517,-49.2258706
8787,"rua despachante manoel lourenço de carvalho, UBERABA, Curitiba",-25.4906627,-49.2005928
8788,"rua bernardo krasinski, ORLEANS, Curitiba",-25.4335539,-49.3428032
8789,"rua maracatiara, BAIRRO ALTO, Curitiba",-25.4036352,-49.2122433
8790,"rua rosildo portela, SÍTIO CERCADO, Curitiba",-25.5610596,-49.2536917
8791,"rua josé luiz rissardi, PILARZINHO, Curitiba",-25.4007256,-49.27951669999999
8792,"rua ambiental, CRISTO REI, Curitiba",-25.43308,-49.2441663
8793,"rua arthur leinig, MERCÊS, Curitiba",-25.4128496,-49.2925897
8794,"rua antonio ferreira, PORTÃO, Curitiba",-25.4800408,-49.3017952
8795,"rua sócrates silveira mello, SANTA CÂNDIDA, Curitiba",-25.3795701,-49.2476632
8796,"rua gastão poplade, PAROLIN, Curitiba",-25.4616863,-49.2705619
8797,"rua terezinha maia (tatuquara), TATUQUARA, Curitiba",-25.5647384,-49.3282697
8798,"rua clotilde gaspar riquelme, CAPÃO DA IMBUIA, Curitiba",-25.4339584,-49.210404
8799,"rua antonio antoniacomi, CIDADE INDUSTRIAL, Curitiba",-25.366275,-49.2111096
8800,"rua sargento haroldo cordeiro júnior, CIDADE INDUSTRIAL, Curitiba",-25.4561174,-49.3795104
8801,"rua antenor jose tedeschi, CAJURU, Curitiba",-25.4563518,-49.2008313
8802,"rua pitomba, UBERABA, Curitiba",-25.4719004,-49.2156198
8803,"rua conde de sao joao das duas barras, BOQUEIRÃO, Curitiba",-25.491737,-49.2576603
8804,"rua irmã clementina, BOA VISTA, Curitiba",-25.4667095,-49.1916634
8805,"rua mangaba, UBERABA, Curitiba",-25.4894391,-49.21515729999999
8806,"rua doutor gabriel ferreira filho, UBERABA, Curitiba",-25.4795032,-49.210679
8807,"rua gerci garcez das neves, CAJURU, Curitiba",-25.4535342,-49.2162342
8808,"rua josé rietmeyer, CAJURU, Curitiba",-25.4747217,-49.2393043
8809,"rua osvaldo capeline, SÃO BRAZ, Curitiba",-25.4117236,-49.3482814
8810,"rua ceará, GUAÍRA, Curitiba",-25.4554995,-49.264503
8811,"rua recanto dos eucaliptos, ALTO BOQUEIRÃO, Curitiba",-25.5295999,-49.24158629999999
8812,"rua josé gonçalves júnior, CAMPO COMPRIDO, Curitiba",-25.4654773,-49.32702949999999
8813,"rua matheus luiz dalagassa, TATUQUARA, Curitiba",-25.5596765,-49.3169451
8814,"rua cícero jaime bley, BACACHERI, Curitiba",-25.3977081,-49.2316092
8815,"rua tobias de macedo júnior, SANTO INÁCIO, Curitiba",-25.4272583,-49.3292898
8816,"rua joanita luiza zaninelli pereira, UBERABA, Curitiba",-25.4851355,-49.2056682
8817,"rua guilherme mazeto, PINHEIRINHO, Curitiba",-25.5077871,-49.2892139
8818,"rua doutor aluízio frança, BUTIATUVINHA, Curitiba",-25.4254907,-49.3063668
8819,"rua walter moacir ferri, CAXIMBA, Curitiba",-25.3946085,-49.3133095
8820,"rua jose torres, CAJURU, Curitiba",-25.4967072,-49.3236351
8821,"rua josé mulaski gebert, TINGUI, Curitiba",-25.5573585,-49.340399
8822,"rua afranio peixoto, PORTÃO, Curitiba",-25.4917107,-49.3271468
8823,"rua adair marcondes negrão, SÍTIO CERCADO, Curitiba",-25.55411,-49.2565468
8824,"rua capitão joão zaleski, PORTÃO, Curitiba",-25.4766254,-49.2754999
8825,"rua joão gasparini, PILARZINHO, Curitiba",-25.3849811,-49.2871047
8826,"rua conde dos arcos, PORTÃO, Curitiba",-25.4798861,-49.27841060000001
8827,"rua pedro de campos freire, FAZENDINHA, Curitiba",-25.4698599,-49.3229857
8828,"rua andré klug, BARREIRINHA, Curitiba",-25.3773771,-49.2590526
8829,"rua ararangua, CIDADE INDUSTRIAL, Curitiba",-25.4644404,-49.3413529
8830,"rua batista ganz, SANTO INÁCIO, Curitiba",-25.4290031,-49.3171919
8831,"rua joão esmanhoto, SÃO BRAZ, Curitiba",-25.4135316,-49.3471467
8832,"rua flavio dallegrave, CABRAL, Curitiba",-25.4049868,-49.2459852
8833,"rua joão alves da rocha loures, CIDADE INDUSTRIAL, Curitiba",-25.4656099,-49.3420205
8834,"rua saint  hilaire, ÁGUA VERDE, Curitiba",-25.4501082,-49.28545
8835,"rua anna dinarowski sobczyk, CIDADE INDUSTRIAL, Curitiba",-25.4392825,-49.3513196
8836,"rua voluntários da pátria, BATEL, Curitiba",-25.4326404,-49.2748814
8837,"rua theodorus maria gerardus bon, TATUQUARA, Curitiba",-25.5797139,-49.3202892
8838,"rua flavio dallegrave, BOA VISTA, Curitiba",-25.3911144,-49.2578213
8839,"rua lindolfo pessoa, VILA IZABEL, Curitiba",-25.4519878,-49.2955883
8840,"rua theodorus maria geradus bon, CAMPO DE SANTANA, Curitiba",-25.5797139,-49.3202892
8841,"rua rio guaíba, ATUBA, Curitiba",-25.3961658,-49.19844459999999
8842,"rua cruzeiro do oeste, CIDADE INDUSTRIAL, Curitiba",-25.4543854,-49.3764826
8843,"rua santina peretti de castro, ALTO BOQUEIRÃO, Curitiba",-25.5207756,-49.2443247
8844,"rua sargento haroldo cordeiro junior, AUGUSTA, Curitiba",-25.4561174,-49.3795104
8845,"rua ernesto che guevara, CACHOEIRA, Curitiba",-25.5144234,-49.3301215
8846,"rua rod. br cento e dezesseis, CIDADE INDUSTRIAL, Curitiba",-25.5040295,-49.3297882
8847,"rua morro da india, TATUQUARA, Curitiba",-25.5647384,-49.3282697
8848,"rua presidente faria, SANTA QUITÉRIA, Curitiba",-25.4273866,-49.2685354
8849,"rua pacifico guimaraes teixeira filho, UBERABA, Curitiba",-25.4798149,-49.2364437
8850,"rua getulio silveira, AUGUSTA, Curitiba",-25.4639709,-49.35362300000001
8851,"rua robert redzimski, BAIRRO ALTO, Curitiba",-25.4546935,-49.3528415
8852,"rua yolando joao toninelo, SÃO BRAZ, Curitiba",-25.4221153,-49.3629628
8853,"rua maria da luz roquembauer, SÍTIO CERCADO, Curitiba",-25.5315299,-49.2742802
8854,"rua inocêncio bindo, CIDADE INDUSTRIAL, Curitiba",-25.4949957,-49.3509379
8855,"rua lafayette queirolo, UBERABA, Curitiba",-25.4717299,-49.223121
8856,"rua roaldo brun, ATUBA, Curitiba",-25.386785,-49.2069044
8857,"rua ana biscaia de andrade, SÍTIO CERCADO, Curitiba",-25.5477679,-49.2514822
8858,"rua mamoré, SÃO FRANCISCO, Curitiba",-25.4182282,-49.281585
8859,"rua julia domingos bortolotto, ABRANCHES, Curitiba",-25.3537811,-49.2703675
8860,"rua eny fernandes barranco, CIDADE INDUSTRIAL, Curitiba",-25.5062858,-49.33735069999999
8861,"rua pedro bonat, CAPÃO RASO, Curitiba",-25.4948668,-49.292518
8862,"rua sete, TATUQUARA, Curitiba",43.4078758,3.7008219
8863,"rua dalila lopes costa, UBERABA, Curitiba",-25.482636,-49.20911590000001
8864,"rua francisco krainski, BARREIRINHA, Curitiba",-25.3794182,-49.2630206
8865,"rua lendina germano ribeiro, SANTA CÂNDIDA, Curitiba",-25.3848412,-49.1946462
8866,"rua adelirio da veiga, ABRANCHES, Curitiba",-25.3780216,-49.2722528
8867,"rua talismã, UBERABA, Curitiba",-25.4858632,-49.2193668
8868,"rua estefano fialla, CAMPO DE SANTANA, Curitiba",-25.6017585,-49.330849
8869,"rua beira-rio, CAXIMBA, Curitiba",-25.6165382,-49.35423309999999
8870,"rua catarina ferrarini ferreira, SANTA CÂNDIDA, Curitiba",-25.3754244,-49.2292988
8871,"rua vila pantanal, ALTO BOQUEIRÃO, Curitiba",-25.5167872,-49.2308405
8872,"rua joaquim morotti, CAJURU, Curitiba",-25.4709886,-49.1875301
8873,"rua jeremias eugênio fernandes, TATUQUARA, Curitiba",-25.562978,-49.3382955
8874,"rua estelita sarraf scorsin, SANTA FELICIDADE, Curitiba",-25.420562,-49.3326381
8875,"rua dedé mocellin, CAMPO COMPRIDO, Curitiba",-25.4704188,-49.32441439999999
8876,"rua rosa de barros, PORTÃO, Curitiba",-25.467727,-49.3295365
8877,"rua valdir pascoal, BAIRRO NAO INFORMADO, Curitiba",-25.4808762,-49.3044253
8878,"rua noca correia reinhardt, TATUQUARA, Curitiba",-25.5711395,-49.31890199999999
8879,"rua richard wagner, VISTA ALEGRE, Curitiba",-25.4050452,-49.2833073
8880,"rua pinheiro, TATUQUARA, Curitiba",-25.5138132,-49.3098161
8881,"rua panatanal, ALTO BOQUEIRÃO, Curitiba",-25.5317642,-49.2421568
8882,"rua marinho, PINHEIRINHO, Curitiba",-25.527816,-49.29186550000001
8883,"rua rod. curitiba rio branco pr-092, ABRANCHES, Curitiba",-25.3739162,-49.2740221
8884,"rua brasilio itibere, JARDIM BOTÂNICO, Curitiba",-25.4407805,-49.2525765
8885,"rua 9 (cic), CIDADE INDUSTRIAL, Curitiba",-25.5040295,-49.3297882
8886,"rua alvorada, TATUQUARA, Curitiba",-25.4771955,-49.240256
8887,"rua julia cessi melo (sitio cercado), TATUQUARA, Curitiba",-25.5575926,-49.26149590000001
8888,"rua abilio de oliveira mendes, UBERABA, Curitiba",-25.4989415,-49.29320209999999
8889,"rua raphael fiandanese filho, SANTO INÁCIO, Curitiba",-25.4223762,-49.3238712
8890,"rua doutor joao de paula moura brito, UBERABA, Curitiba",-25.4813613,-49.2288666
8891,"rua doutor afonso loyola e silva, UBERABA, Curitiba",-25.4768518,-49.2115817
8892,"rua são josé de calazans, SANTA FELICIDADE, Curitiba",-25.3826731,-49.3243292
8893,"rua estrada curitiba araucaria, NOVO MUNDO, Curitiba",-25.5122189,-49.3321192
8894,"rua macapá, BOA VISTA, Curitiba",-25.3819327,-49.2255703
8895,"rua helly de macedo souza, JARDIM SOCIAL, Curitiba",-25.4169551,-49.2347942
8896,"rua professora sonia maria coimbra kenski, CAJURU, Curitiba",-25.4757812,-49.1980373
8897,"rua abel scuissiato, FAZENDINHA, Curitiba",-25.469744,-49.2818049
8898,"rua hermenegildo luca       lt e e  copel, SANTA FELICIDADE, Curitiba",-25.4004817,-49.35749449999999
8899,"rua canada, BOA VISTA, Curitiba",-25.3929371,-49.2386451
8900,"rua angela maqueto, CAMPO COMPRIDO, Curitiba",-25.3971623,-49.3521152
8901,"rua dos monjoleiros, BARREIRINHA, Curitiba",-25.3752757,-49.2539543
8902,"rua bernardo sobieck, CIDADE INDUSTRIAL, Curitiba",-25.4470458,-49.3437299
8903,"rua pedro kulik, SANTA CÂNDIDA, Curitiba",-25.3667351,-49.22480789999999
8904,"rua sabino costa cristo, ALTO BOQUEIRÃO, Curitiba",-25.5241902,-49.2629574
8905,"rua são joão, SANTA CÂNDIDA, Curitiba",-25.3802833,-49.2254904
8906,"rua xambre, FAZENDINHA, Curitiba",-25.4864802,-49.34556560000001
8907,"rua vila hauer, HAUER, Curitiba",-25.482179,-49.245456
8908,"rua winston churchill, NOVO MUNDO, Curitiba",-25.4890253,-49.2941253
8909,"rua flávio dalegrave, AHÚ, Curitiba",-25.3910224,-49.2578353
8910,"rua paraná, BAIRRO ALTO, Curitiba",-25.4112352,-49.206914
8911,"rua estação tubo chapinhal, SÍTIO CERCADO, Curitiba",-25.535532,-49.2853041
8912,"rua joao carlos de souza castro, GUABIROTUBA, Curitiba",-25.4624881,-49.24125859999999
8913,"rua levi boqueira, SÍTIO CERCADO, Curitiba",-25.5443488,-49.26656209999999
8914,"rua camilo de lelis, CENTRO, Curitiba",-25.4808762,-49.3044253
8915,"rua florianópolis, CAPÃO DA IMBUIA, Curitiba",-27.5948698,-48.54821949999999
8916,"rua nicarágua, BOA VISTA, Curitiba",-25.3974459,-49.2360492
8917,"rua antonio renlado zanon, CIDADE INDUSTRIAL, Curitiba",-25.4780424,-49.3362823
8918,"rua rivadavia f. de macedo, CAJURU, Curitiba",-25.4786851,-49.1966492
8919,"rua vereador nicolau lange, BAIRRO ALTO, Curitiba",-25.4260552,-49.2110249
8920,"rua calixto de jesus, TINGUI, Curitiba",-25.3797219,-49.2230497
8921,"rua reginaldo antônio wacheski, SÍTIO CERCADO, Curitiba",-25.5567371,-49.2464362
8922,"rua capitao joao minchaliszen, TATUQUARA, Curitiba",-25.5897414,-49.3380461
8923,"rua br - 116, TATUQUARA, Curitiba",-25.5692754,-49.3104259
8924,"rua são pedro, XAXIM, Curitiba",-25.4106996,-49.2530218
8925,"rua reinaldo baldan, PINHEIRINHO, Curitiba",-25.5346077,-49.28764100000001
8926,"rua ludovico lucca, SÃO BRAZ, Curitiba",-25.416113,-49.3537505
8927,"rua cel pretextato penna forte t ribas, SANTA QUITÉRIA, Curitiba",-25.4639082,-49.31010550000001
8928,"rua doutor simao kossobudski, UBERABA, Curitiba",-25.5011396,-49.2266099
8929,"rua capitão joão michalizsen, CAMPO DE SANTANA, Curitiba",-25.5897414,-49.3380461
8930,"rua expedicionário epitácio peixoto de morais, CAPÃO DA IMBUIA, Curitiba",-25.4328538,-49.2043301
8931,"rua gildo lazzarotto, CAMPO COMPRIDO, Curitiba",-25.4623785,-49.3491279
8932,"rua luiz carlos cardoso, SANTA CÂNDIDA, Curitiba",-25.3675421,-49.2219464
8933,"rua av. presidente kennedy, GUAÍRA, Curitiba",-25.4671784,-49.28060230000001
8934,"rua sebastião gonçalves pinto, ATUBA, Curitiba",-25.384374,-49.194664
8935,"rua mar cáspio, PINHEIRINHO, Curitiba",-25.5277161,-49.27448099999999
8936,"rua doutor heitor baggio, BAIRRO ALTO, Curitiba",-25.4151375,-49.2063532
8937,"rua maria bizinelli, CAMPO COMPRIDO, Curitiba",-25.450016,-49.324405
8938,"rua senhorinho gonsalves pedroso, CAJURU, Curitiba",-25.4643729,-49.20845749999999
8939,"rua sitio cercado, SÍTIO CERCADO, Curitiba",-25.532318,-49.262007
8940,"rua francisco nunes, CENTRO, Curitiba",-25.4502776,-49.25535929999999
8941,"rua br cento e dezesseis, PORTÃO, Curitiba",-25.4289541,-49.267137
8942,"rua catarina bressan scarpin, CAMPO COMPRIDO, Curitiba",-25.4686901,-49.3234763
8943,"rua ginasio xapinhal, SÍTIO CERCADO, Curitiba",-25.5333191,-49.2746678
8944,"rua al. nossa senhora do sagrado coracao, PINHEIRINHO, Curitiba",-25.5337636,-49.2958177
8945,"rua joão carlos hartley gutierrez, VISTA ALEGRE, Curitiba",-25.4085404,-49.2908608
8946,"rua professora edmee neal algouver, ALTO BOQUEIRÃO, Curitiba",-25.5271772,-49.2311889
8947,"rua julieta rigão schrederhof, TATUQUARA, Curitiba",-25.5672006,-49.3334324
8948,"rua pedro rigotto, CENTRO CÍVICO, Curitiba",-25.4031897,-49.2683325
8949,"rua albino frederico foerster, ALTO BOQUEIRÃO, Curitiba",-25.5296089,-49.2400612
8950,"rua ovandre rocha dos santos, TATUQUARA, Curitiba",-25.57972,-49.3310465
8951,"rua eudilia lopes, CAJURU, Curitiba",-25.4601547,-49.2132111
8952,"rua jose beppi lucca, SÃO BRAZ, Curitiba",-25.4214371,-49.3431313
8953,"rua conselheiro laurindo, PRADO VELHO, Curitiba",-25.4489115,-49.257651
8954,"rua ronald josé carboni, CAPÃO DA IMBUIA, Curitiba",-25.438117,-49.2215959
8955,"rua manoel ribas, CIDADE INDUSTRIAL, Curitiba",-25.4089185,-49.3222402
8956,"rua expedicionário anélio da luz, ALTO BOQUEIRÃO, Curitiba",-25.5378825,-49.243443
8957,"rua são roque, GUABIROTUBA, Curitiba",-25.4697655,-49.2389771
8958,"rua professora maria balbina costa dias, BARREIRINHA, Curitiba",-25.3779233,-49.2530769
8959,"rua salvador gonçalo de christo, CIDADE INDUSTRIAL, Curitiba",-25.4565182,-49.3440194
8960,"rua bartolomeu lourenço de gusmão, CAJURU, Curitiba",-25.4902206,-49.2376487
8961,"rua doutora juracy riquelme, CAPÃO DA IMBUIA, Curitiba",-25.4416389,-49.2054962
8962,"rua mario yassumoto seita, GANCHINHO, Curitiba",-25.5561189,-49.2487643
8963,"rua parque cambuí, FAZENDINHA, Curitiba",-25.4786398,-49.328937
8964,"rua antonio jose bonato, GANCHINHO, Curitiba",-25.558818,-49.2488065
8965,"rua benedito vaz dos santos, CIDADE INDUSTRIAL, Curitiba",-25.528229,-49.33950249999999
8966,"rua engenheiro alvaro baptista, UMBARÁ, Curitiba",-25.5584326,-49.2808875
8967,"rua ceará, CAJURU, Curitiba",-25.4554995,-49.264503
8968,"rua são josé, SÍTIO CERCADO, Curitiba",-25.5430988,-49.2622851
8969,"rua herminio cardoso, TINGUI, Curitiba",-25.3923388,-49.216381
8970,"rua presidente carlos cavalcanti, CABRAL, Curitiba",-25.4253585,-49.26742910000001
8971,"rua sant ana, JARDIM BOTÂNICO, Curitiba",-25.4397887,-49.2475709
8972,"rua maestro francisco antonello, NOVO MUNDO, Curitiba",-25.4907045,-49.27665770000001
8973,"rua aviador luiz bergmann, BACACHERI, Curitiba",-25.3943364,-49.2333261
8974,"rua br-476, PAROLIN, Curitiba",-25.4699251,-49.25500299999999
8975,"rua juscelino kubitschek de oliveira le, PINHEIRINHO, Curitiba",-25.4901584,-49.3446295
8976,"rua maria da luz cordeiro xavier, SANTO INÁCIO, Curitiba",-25.4260652,-49.3207183
8977,"rua professor joao mazzarotto, CAPÃO RASO, Curitiba",-25.4995498,-49.2920526
8978,"rua filipinas, CAPÃO DA IMBUIA, Curitiba",-25.4666032,-49.2093374
8979,"rua adelino belio, CAJURU, Curitiba",-19.9166813,-43.9344931
8980,"rua curitiba paranaguá br-277, SANTA FELICIDADE, Curitiba",-25.4298442,-49.3660727
8981,"rua 2, TATUQUARA, Curitiba",-25.5607327,-49.31457959999999
8982,"rua marcolino caetano chaves, SÍTIO CERCADO, Curitiba",-25.5441625,-49.2631144
8983,"rua das esmeraldas, ABRANCHES, Curitiba",-25.382364,-49.2783005
8984,"rua são pedro do ivaí, FAZENDINHA, Curitiba",-25.4780099,-49.3470211
8985,"rua deputado joão ferreira neves, VISTA ALEGRE, Curitiba",-25.4087471,-49.2969476
8986,"rua albino potulski, SANTO INÁCIO, Curitiba",-25.4266388,-49.3442423
8987,"rua mário pizato, CIDADE INDUSTRIAL, Curitiba",-25.5421482,-49.3422135
8988,"rua idianapolis, UBERABA, Curitiba",39.768403,-86.158068
8989,"rua elvira marquesini vaz, TATUQUARA, Curitiba",-25.5416054,-49.2757328
8990,"rua 1, ALTO BOQUEIRÃO, Curitiba",-25.5317642,-49.2421568
8991,"rua marechal trompowski, CABRAL, Curitiba",-25.3937203,-49.2323647
8993,"rua joao francisco antunes, CIDADE INDUSTRIAL, Curitiba",-25.5473565,-49.339374
8994,"rua adolfo henrique klinger, SÃO LOURENÇO, Curitiba",-25.3783125,-49.2674296
8995,"rua irineu maximize, PINHEIRINHO, Curitiba",-25.5234784,-49.2280981
8996,"rua domingos gutierrez beltrão, NOVO MUNDO, Curitiba",-25.4843931,-49.3103043
8997,"rua mathias de andrade rocha, ALTO BOQUEIRÃO, Curitiba",-25.5314213,-49.2368847
8998,"rua deise luciberno, GUAÍRA, Curitiba",-25.4706466,-49.2742891
8999,"rua leocádio moscaleski lacerda, GANCHINHO, Curitiba",-25.5504565,-49.2455028
9000,"rua manoel cabanelas garcia, NOVO MUNDO, Curitiba",-25.4846374,-49.3083494
9001,"rua miguel osório de almeida, FAZENDINHA, Curitiba",-25.4842397,-49.33532719999999
9002,"rua coronel joão guilherme guimarães, MERCÊS, Curitiba",-25.4177662,-49.2836643
9003,"rua professor brandão, CENTRO, Curitiba",-25.4243028,-49.2490985
9004,"rua presidente affonso camargo, CAMPO COMPRIDO, Curitiba",-25.4417213,-49.2325424
9005,"rua ulisses gavazzoni, XAXIM, Curitiba",-25.4961673,-49.2662846
9006,"rua r. justo manfron, SANTA FELICIDADE, Curitiba",-25.37244,-49.32085499999999
9007,"rua luiz carlos bruginski, FAZENDINHA, Curitiba",-25.4724553,-49.32305969999999
9008,"rua stanislau felibrante, CIDADE INDUSTRIAL, Curitiba",-25.4810548,-49.3630696
9009,"rua silvio corazza, GANCHINHO, Curitiba",-25.5592041,-49.2521126
9010,"rua joão ramalho, BAIRRO ALTO, Curitiba",-25.4143686,-49.20282359999999
9011,"rua jorge bonn, TINGUI, Curitiba",-25.3916028,-49.21987439999999
9012,"rua kleverson lopes de paula, ALTO BOQUEIRÃO, Curitiba",-25.5354928,-49.23127059999999
9013,"rua leandro dacheux do nascimento junior, CIDADE INDUSTRIAL, Curitiba",-25.4583389,-49.3536723
9014,"rua antonio gagno, CIDADE INDUSTRIAL, Curitiba",-25.492693,-49.35235489999999
9015,"rua professor  alberto p., BOA VISTA, Curitiba",-25.3886823,-49.2334685
9016,"rua lucio halas, TATUQUARA, Curitiba",-25.5683122,-49.3283835
9017,"rua camilo castelo branco, LINDÓIA, Curitiba",-25.4773428,-49.2760751
9018,"rua engenheiro marcos jose lewin, FAZENDINHA, Curitiba",-25.4791274,-49.3360208
9019,"rua moradias cordélia., CIDADE INDUSTRIAL, Curitiba",-25.5072256,-49.354416
9020,"rua maria josé de souza, TATUQUARA, Curitiba",-25.5428708,-49.3005269
9021,"rua padre ladislau kula, SÃO BRAZ, Curitiba",-25.4261313,-49.32107
9022,"rua nossa senhora da luz, JUVEVÊ, Curitiba",-25.416363,-49.241876
9023,"rua norte barigui, PILARZINHO, Curitiba",-25.3790538,-49.2965461
9024,"rua est. da ribeira br-476, ATUBA, Curitiba",-25.3845292,-49.2023328
9025,"rua rio grande do sul, GUAÍRA, Curitiba",-25.4682927,-49.2816968
9026,"rua winston churchill, PORTÃO, Curitiba",-25.5094797,-49.2957614
9027,"rua maria marchiori fantinato, ATUBA, Curitiba",-25.3898064,-49.2053169
9028,"rua pedro cruzetta, AUGUSTA, Curitiba",-25.4611151,-49.3730396
9029,"rua alcebiades nunes guimaraes, ATUBA, Curitiba",-25.3884664,-49.2097691
9030,"rua edith barbosa souto, UMBARÁ, Curitiba",-25.5648326,-49.2779558
9031,"rua edith barbosa souto, TATUQUARA, Curitiba",-25.5648326,-49.2779558
9032,"rua doutor ozeas saraiva de araujo, UBERABA, Curitiba",-25.4890762,-49.2058799
9033,"rua raul zanon, FAZENDINHA, Curitiba",-25.4788859,-49.3381048
9034,"rua angelo rigolino, TATUQUARA, Curitiba",-25.5503677,-49.299117
9035,"rua yassushi mori, BOQUEIRÃO, Curitiba",-25.4967475,-49.2251916
9036,"rua desembargador motta, MERCÊS, Curitiba",-25.4267038,-49.28717289999999
9037,"rua irmã clarice biazus, XAXIM, Curitiba",-25.5257824,-49.263634
9038,"rua ricardo gonçalves junior, ATUBA, Curitiba",-25.3842161,-49.2003965
9039,"rua joaquim américo guimarães, JARDIM SOCIAL, Curitiba",-25.4140498,-49.2379303
9040,"rua hasdrubal bellegard, CIDADE INDUSTRIAL, Curitiba",-25.5512398,-49.3118112
9041,"rua major stanislau grosmann, CAJURU, Curitiba",-25.477071,-49.1983837
9042,"rua luis carlos macedo de oliveira, CAMPO DE SANTANA, Curitiba",-25.5857105,-49.3415062
9043,"rua paulo macarini, SANTA CÂNDIDA, Curitiba",-25.3634515,-49.2150064
9044,"rua elza lutmann, CAJURU, Curitiba",-25.48842,-49.199803
9045,"rua leonor castellano, PILARZINHO, Curitiba",-25.3915727,-49.2758721
9046,"rua teodozia glovaski, CIDADE INDUSTRIAL, Curitiba",-25.4570272,-49.3570199
9047,"rua americo mattei, TARUMÃ, Curitiba",-25.4329109,-49.226918
9048,"rua gabriel rodrigues de almeida, ATUBA, Curitiba",-25.3843882,-49.1958541
9049,"rua shakespeare, BARREIRINHA, Curitiba",-25.3773977,-49.2595485
9050,"rua joão stenzowski, NOVO MUNDO, Curitiba",-25.4852592,-49.2879741
9051,"rua alete dacheaux stori, JARDIM DAS AMÉRICAS, Curitiba",-25.4654827,-49.2218796
9052,"rua antonio de oliveira, CAJURU, Curitiba",-25.4646828,-49.1993194
9053,"rua coronel enock de lima, SEMINÁRIO, Curitiba",-25.4541178,-49.3026032
9054,"rua engenheiro romulo gutierrez, MERCÊS, Curitiba",-25.4101101,-49.2896692
9055,"rua julia huga maria negrello, UMBARÁ, Curitiba",-25.5570309,-49.2895774
9056,"rua jacy loureiro de campos, CENTRO CÍVICO, Curitiba",-25.4152111,-49.2701336
9057,"rua pedro eloy de souza, TARUMÃ, Curitiba",-25.4205529,-49.2051029
9058,"rua alexandre salata, LINDÓIA, Curitiba",-25.4738681,-49.2691449
9059,"rua andré bonato, UMBARÁ, Curitiba",-25.5712382,-49.2744894
9060,"rua joaquim marques dos santos, CACHOEIRA, Curitiba",-25.3556699,-49.2466769
9061,"rua major antonio gomes ferreira, CRISTO REI, Curitiba",-25.4404979,-49.2361365
9062,"rua josé taschner, FANNY, Curitiba",-25.4879476,-49.2760948
9063,"rua deputado leoberto leal, CAJURU, Curitiba",-25.457883,-49.2457189
9064,"rua eloy machado, SANTA CÂNDIDA, Curitiba",-25.3682603,-49.221678
9065,"rua professor nivaldo braga, CAPÃO RASO, Curitiba",-25.4383385,-49.2197079
9066,"rua doutor mbá de ferrante, TINGUI, Curitiba",-25.4023477,-49.30486250000001
9067,"rua alberto erthal, SÃO LOURENÇO, Curitiba",-25.3834566,-49.2635909
9068,"rua ewerton leinig saporski, TATUQUARA, Curitiba",-25.5909876,-49.3428253
9069,"rua soldado agnaldo gonçalves, CIDADE INDUSTRIAL, Curitiba",-25.4631458,-49.3536192
9070,"rua diamira valerio ruthes, CAMPO DE SANTANA, Curitiba",-25.5857745,-49.3190163
9071,"rua presidente arthur da silva bernardes, SANTA FELICIDADE, Curitiba",-25.463989,-49.3014012
9072,"rua antonio floriano filho, HAUER, Curitiba",-25.4920183,-49.266806
9073,"rua emilia andretta, BOQUEIRÃO, Curitiba",-25.5018551,-49.2583975
9074,"rua eduardo luiz piana, CIDADE INDUSTRIAL, Curitiba",-25.4705667,-49.3408905
9075,"rua senador souza naves, BOA VISTA, Curitiba",-25.4312656,-49.248668
9076,"rua general carneiro, PORTÃO, Curitiba",-25.4289541,-49.267137
9077,"rua professor luiz anibal calderari, CAPÃO RASO, Curitiba",-25.4997801,-49.28936729999999
9078,"rua desembargador miguel thomaz pessoa, CIDADE INDUSTRIAL, Curitiba",-25.4547047,-49.3494887
9079,"rua da liberdade, BAIRRO ALTO, Curitiba",-25.4112352,-49.206914
9080,"rua wilkys amazonas correia, PILARZINHO, Curitiba",-25.385113,-49.2925561
9081,"rua contorno norte de curitiba, SÍTIO CERCADO, Curitiba",-25.380709,-49.3364373
9082,"rua ribeirão do pinhal, XAXIM, Curitiba",-25.5125924,-49.2713097
9083,"rua henrique joaquim ribeiro, SANTA FELICIDADE, Curitiba",-25.4089333,-49.3337594
9084,"rua manoel da rocha küster, CAJURU, Curitiba",-25.4531025,-49.2155076
9085,"rua joaquim domingos vicentim, SEMINÁRIO, Curitiba",-25.4530014,-49.3231406
9086,"rua eunice weaver, SEMINÁRIO, Curitiba",-25.4524683,-49.3149818
9087,"rua clotário de macedo portugal filho, CENTRO, Curitiba",-25.3737857,-49.2798897
9088,"rua borrazópolis, TATUQUARA, Curitiba",-25.5256134,-49.25597759999999
9089,"rua arapongas, PINHEIRINHO, Curitiba",-25.5416088,-49.28663659999999
9090,"rua javer, ALTO BOQUEIRÃO, Curitiba",-25.3877342,-49.1981244
9091,"rua manoel ordanis, ALTO BOQUEIRÃO, Curitiba",-25.5362244,-49.2303308
9092,"rua helena  nunes da silva, SÍTIO CERCADO, Curitiba",-25.4583456,-49.3476361
9093,"rua gerson luiz zonatto, SÍTIO CERCADO, Curitiba",-25.5321696,-49.272089
9094,"rua reinaldo carvalho bola, SÍTIO CERCADO, Curitiba",-25.5564456,-49.2498556
9095,"rua arnaldo baptista de castro, ATUBA, Curitiba",-25.3843591,-49.1957077
9096,"rua salto do itararé, CAMPO COMPRIDO, Curitiba",-25.4773987,-49.3454105
9097,"rua major heitor guimarães, SANTA FELICIDADE, Curitiba",-25.441078,-49.3084858
9098,"rua joao gribogi, CAJURU, Curitiba",-25.4646588,-49.2146497
9099,"rua adolpho bertoldi, CIDADE INDUSTRIAL, Curitiba",-25.5895674,-49.34138189999999
9100,"rua maria visnievski, CIDADE INDUSTRIAL, Curitiba",-25.5170305,-49.3300644
9101,"rua josé rechetello, CIDADE INDUSTRIAL, Curitiba",-25.5265887,-49.3352425
9102,"rua dr. saul brofman, CIDADE INDUSTRIAL, Curitiba",-25.5028556,-49.3372268
9103,"rua maria procopio pereira, CIDADE INDUSTRIAL, Curitiba",4.8087174,-75.690601
9104,"rua adonis rogério de morais, CIDADE INDUSTRIAL, Curitiba",-25.528316,-49.339871
9105,"rua irton silveira de almeida, CIDADE INDUSTRIAL, Curitiba",-25.4961668,-49.3482172
9106,"rua coronel luiz fernando mariano, CIDADE INDUSTRIAL, Curitiba",-25.5045684,-49.3384709
9107,"rua otávio ribas guimarães, PORTÃO, Curitiba",-25.465294,-49.2943034
9108,"rua izaac ferreira da cruz, CAPÃO RASO, Curitiba",-25.5361483,-49.2726933
9109,"rua odilon de santa rita borba, BACACHERI, Curitiba",-25.3969251,-49.2393452
9110,"rua são josé, CACHOEIRA, Curitiba",-25.5430988,-49.2622851
9111,"rua albino blum, BOA VISTA, Curitiba",-25.3700924,-49.2512256
9112,"rua corrego norte barigui, PILARZINHO, Curitiba",-25.3790538,-49.2965461
9113,"rua flavio bonat, TATUQUARA, Curitiba",-25.5638126,-49.3140432
9114,"rua senador jorge de lima, PILARZINHO, Curitiba",-25.3908275,-49.2854935
9115,"rua egberto acir schimmelpfing pereira, PINHEIRINHO, Curitiba",-25.5234756,-49.27300839999999
9116,"rua nova aurora, PINHEIRINHO, Curitiba",-25.5443524,-49.2640623
9117,"rua anjo de luz, CAMPO COMPRIDO, Curitiba",-25.4621515,-49.3429995
9118,"rua alfredo schwartz, SANTO INÁCIO, Curitiba",-25.4289136,-49.3292401
9119,"rua maria falat, ABRANCHES, Curitiba",-25.3562369,-49.2765673
9120,"rua delegado ruy rebello vieira, SÍTIO CERCADO, Curitiba",-25.5447624,-49.25816
9121,"rua durval alves moço, BAIRRO FICTÍCIO, Curitiba",-25.5211877,-49.2435032
9122,"rua dr  aristoteles batista de camargo, CIDADE INDUSTRIAL, Curitiba",-25.5031992,-49.3390611
9123,"rua vereador toaldo túlio, CAMPO COMPRIDO, Curitiba",-25.4188405,-49.3484105
9124,"rua clementina de paula ferreira, BOQUEIRÃO, Curitiba",-25.5144938,-49.27237119999999
9125,"rua são sebastião, TATUQUARA, Curitiba",-25.5621924,-49.3305847
9126,"rua flávio dallegrave, CAJURU, Curitiba",-25.3910224,-49.2578353
9127,"rua josé inácio xavier, PINHEIRINHO, Curitiba",-25.5312688,-49.2834359
9128,"rua bortolo pelanda, TATUQUARA, Curitiba",-25.5636567,-49.3006936
9129,"rua feliciano tomelin, UBERABA, Curitiba",-25.4869765,-49.1983246
9130,"rua escritor josé pereira da graça aranha, SÍTIO CERCADO, Curitiba",-25.5393399,-49.2583586
9131,"rua desembargador edison nobre de lacerda, SANTA FELICIDADE, Curitiba",-25.3808078,-49.3231075
9132,"rua cid jose dos santos, UBERABA, Curitiba",-25.4857729,-49.1945771
9133,"rua anselmo camati, PAROLIN, Curitiba",-25.468794,-49.2618847
9134,"rua augusto de mari, PAROLIN, Curitiba",-25.4631979,-49.27304609999999
9135,"rua palmyra crivellaro bertolde, CAMPO DE SANTANA, Curitiba",-25.5917031,-49.33795749999999
9136,"rua ivo otto, NOVO MUNDO, Curitiba",-25.4837917,-49.31186779999999
9137,"rua joao batista dallarmi, SANTO INÁCIO, Curitiba",-25.4218875,-49.3290044
9138,"rua zumbi dos palmares, PINHEIRINHO, Curitiba",-25.5070474,-49.2922086
9139,"rua indianópolis, ALTO BOQUEIRÃO, Curitiba",-25.5399653,-49.2398496
9140,"rua doutor pedro zavaski, BOQUEIRÃO, Curitiba",-25.5212885,-49.2714127
9141,"rua doutor raul carneiro filho, ÁGUA VERDE, Curitiba",-25.4537607,-49.2725196
9142,"rua misargio pentecesco, FAZENDINHA, Curitiba",-25.4780946,-49.325892
9143,"rua andré zilio, SANTO INÁCIO, Curitiba",-25.428881,-49.3363095
9144,"rua rua do pescador, ALTO BOQUEIRÃO, Curitiba",-25.5317642,-49.2421568
9145,"rua padre bernardo peirick, SÃO LOURENÇO, Curitiba",-25.385074,-49.2635574
9146,"rua aldo pinheiro, ABRANCHES, Curitiba",-25.3819778,-49.2734358
9147,"rua capitao barcimio sicupira, CIDADE INDUSTRIAL, Curitiba",-25.4645772,-49.33950129999999
9148,"rua doutor muricy, SANTA CÂNDIDA, Curitiba",-25.432445,-49.2722218
9149,"rua r. paulo de frontin, CAJURU, Curitiba",-25.4619845,-49.2139408
9150,"rua professor milton de macedo munhoz, CAMPINA DO SIQUEIRA, Curitiba",-25.4336127,-49.3128671
9151,"rua pedro jose de freitas, SÍTIO CERCADO, Curitiba",-25.5437833,-49.248044
9152,"rua dr. josé albino barreiros neto, CIDADE INDUSTRIAL, Curitiba",-25.4994296,-49.35317509999999
9153,"rua santa cecília, PILARZINHO, Curitiba",-25.4019801,-49.28593559999999
9154,"rua doutor alcides vieira arcoverde, JARDIM DAS AMÉRICAS, Curitiba",-25.4565414,-49.2353884
9155,"rua arthur martins franco, SÍTIO CERCADO, Curitiba",-25.4962233,-49.33521289999999
9156,"rua professor benedito conceicao, CAPÃO DA IMBUIA, Curitiba",-25.4391636,-49.2151856
9157,"rua jucelino kubcheck de oliveira, CIDADE INDUSTRIAL, Curitiba",-25.4588383,-49.3590828
9158,"rua rodovia br 116, PINHEIRINHO, Curitiba",-25.5253332,-49.2967947
9159,"rua laudelino afonso da rocha, BOQUEIRÃO, Curitiba",-25.5199321,-49.27023519999999
9160,"rua josé dionisio ribeiro da silva, PORTÃO, Curitiba",-25.4848082,-49.30936459999999
9161,"rua benedito lemes machado, CAPÃO RASO, Curitiba",-25.5055811,-49.3067174
9162,"rua arnaldo gusi, ALTO BOQUEIRÃO, Curitiba",-25.5262648,-49.25990909999999
9163,"rua ivo leão, BOM RETIRO, Curitiba",-25.418679,-49.26379679999999
9164,"rua marcos baggio, FAZENDINHA, Curitiba",-25.486439,-49.334526
9165,"rua 11, GANCHINHO, Curitiba",-25.57328,-49.261374
9166,"rua dos pioneiros, TATUQUARA, Curitiba",-25.5345335,-49.26999139999999
9167,"rua josé joão ferreira de lima, CIDADE INDUSTRIAL, Curitiba",-25.5139591,-49.33183349999999
9168,"rua alice adelia de oliveira, CIDADE INDUSTRIAL, Curitiba",-25.5129112,-49.3353323
9169,"rua evangélica, TATUQUARA, Curitiba",-25.5647384,-49.3282697
9170,"rua rio passa franca, UMBARÁ, Curitiba",-22.9068467,-43.1728965
9171,"rua seraphim lopes, PILARZINHO, Curitiba",-25.3782083,-49.291566
9172,"rua clavio molinari, CAPÃO DA IMBUIA, Curitiba",-25.4396,-49.2114482
9173,"rua joão carlos de souza castro, GUABIROTUBA, Curitiba",-25.4624881,-49.24125859999999
9174,"rua orlando albino von der osten, CAPÃO RASO, Curitiba",-25.4934517,-49.29960699999999
9175,"rua joão parolin, PORTÃO, Curitiba",-25.4593152,-49.2635927
9176,"rua rua a, CACHOEIRA, Curitiba",-25.3575889,-49.2636731
9177,"rua bernardo mann, BOQUEIRÃO, Curitiba",-25.5212361,-49.270221
9178,"rua acyr guimarães, ÁGUA VERDE, Curitiba",-25.4482399,-49.2899399
9179,"rua carneiro lobo, CENTRO, Curitiba",-25.4479636,-49.2897454
9180,"rua professor luiz cesar, ÁGUA VERDE, Curitiba",-25.4581312,-49.2801234
9181,"rua cap ten eduardo alberto de mesquita, MOSSUNGUÊ, Curitiba",-25.4380849,-49.312723
9182,"rua rui itibere da cunha, CIDADE INDUSTRIAL, Curitiba",-25.5162236,-49.3312999
9183,"rua sagrado coração de jesus, PINHEIRINHO, Curitiba",-25.5345426,-49.2952975
9184,"rua luiz leopoldo landal, PORTÃO, Curitiba",-25.4899012,-49.30396
9185,"rua bibiano ribeiro batista, SÍTIO CERCADO, Curitiba",-25.5602487,-49.2587066
9186,"rua orlando padilha dos santos, CENTRO, Curitiba",-25.4790877,-49.2939205
9187,"rua augusto forbeck, CAPÃO DA IMBUIA, Curitiba",-25.4633335,-49.1957899
9188,"rua rosa de quadros, CAJURU, Curitiba",-25.4581458,-49.20703590000001
9189,"rua jose cheinfert, SÃO MIGUEL, Curitiba",-25.5164735,-49.34482999999999
9190,"rua cidade de santa mariana, SÍTIO CERCADO, Curitiba",-25.5345576,-49.2575046
9191,"rua presidente washington luiz, JARDIM SOCIAL, Curitiba",-25.4194755,-49.2325275
9192,"rua rua 11, TATUQUARA, Curitiba",-25.5647384,-49.3282697
9193,"rua sebastião lima, BOQUEIRÃO, Curitiba",-25.5292283,-49.2537633
9194,"rua itapejara do oeste, BOQUEIRÃO, Curitiba",-25.5310157,-49.2342043
9195,"rua afonsi correia de moraes, CAJURU, Curitiba",-25.449236,-49.225606
9196,"rua ribeirão dos padilhas, ALTO BOQUEIRÃO, Curitiba",-25.5121437,-49.2726079
9197,"rua conselheiro carrão, JUVEVÊ, Curitiba",-25.4207548,-49.254437
9198,"rua coronel guilherme theodoro buest, UMBARÁ, Curitiba",-25.5521577,-49.2908145
9199,"rua dr. otacilio terra da costa, CIDADE INDUSTRIAL, Curitiba",-25.5145141,-49.3328978
9200,"rua sebastião francisco cortiano, CAJURU, Curitiba",-25.4411988,-49.2264166
9201,"rua eurico de paiva vidal, CAJURU, Curitiba",-25.4559692,-49.1973195
9202,"rua aarao lamenha de siqueira, SÍTIO CERCADO, Curitiba",-25.5415284,-49.2618533
9203,"rua arcesio de barros lima, TATUQUARA, Curitiba",-25.5659811,-49.33569869999999
9204,"rua radialista dr. wilson brustolin, XAXIM, Curitiba",-25.5862702,-49.3388977
9205,"rua coronel izaltino pinho, FANNY, Curitiba",-25.4739481,-49.2639418
9206,"rua pedro faucz, SANTO INÁCIO, Curitiba",-25.4289267,-49.34392039999999
9207,"rua adão ribeiro dos santos, CIDADE INDUSTRIAL, Curitiba",-25.5405711,-49.3376031
9208,"rua claudio alves de lima, SÍTIO CERCADO, Curitiba",-25.5320088,-49.2740768
9209,"rua romário gonçalves, UMBARÁ, Curitiba",-25.5585914,-49.2847405
9210,"rua professora maria salles godoy, GUABIROTUBA, Curitiba",-25.4705294,-49.2420846
9211,"rua antonio de oliveira furmann, BOA VISTA, Curitiba",-25.3869647,-49.2590549
9212,"rua bruno bertoldi (campo de santana), TATUQUARA, Curitiba",-25.5897066,-49.3347329
9213,"rua victalino josé bolicenha, SÍTIO CERCADO, Curitiba",-25.5540185,-49.2712452
9214,"rua acyr boza, BOQUEIRÃO, Curitiba",-25.5061518,-49.252693
9215,"rua melânia zeni visinoni, PINHEIRINHO, Curitiba",-25.5760805,-49.3214397
9216,"rua júlia da costa, CENTRO, Curitiba",-25.4332964,-49.2937497
9217,"rua doutor joão nassif, ATUBA, Curitiba",-25.3732466,-49.2108857
9218,"rua valdemiro popp, SÍTIO CERCADO, Curitiba",-25.5430594,-49.2646255
9219,"rua prefeito lothário meissner, CENTRO, Curitiba",-25.4440623,-49.2375015
9220,"rua sandra mara ganz lucio, UMBARÁ, Curitiba",-25.5621824,-49.2848468
9221,"rua deputado pinheiro junior, UBERABA, Curitiba",-25.5599711,-49.2837695
9222,"rua josé carolo, MOSSUNGUÊ, Curitiba",-25.4422489,-49.32134
9223,"rua acácio fernandes, TINGUI, Curitiba",-25.3932297,-49.2180145
9224,"rua wiegando olsen, CIDADE INDUSTRIAL, Curitiba",-25.5494679,-49.3259592
9225,"rua eduardo sprada, SANTO INÁCIO, Curitiba",-25.4485065,-49.3507663
9226,"rua joão dembinski, FAZENDINHA, Curitiba",-25.4757138,-49.3369534
